id_odf;siren;nom;type;adress;url_ptf;nb_ptf;url_datagouv;nb_datagouv;id_datagouv;merge;tranche_ptf;platform_clean;orga;tags;id_ods;depcode;dep_label;reg_code_short;reg_code_geo;pop_insee;tranche_pop;lat;lon;boolean
odf_213500010;213500010;ACIGNE;COM;Place de la Mairie 35690 Acigné;https://data.rennesmetropole.fr/explore/?sort=modified&refine.publisher=Commune+d%27Acigné;4;;6;;ptf;d_1_5;OpenDataSoft;Data Rennes Métropole;Social-Citoyenneté;Commune d'Acigné;35;Ille-et-Vilaine;BRE;53;6275;p_5_10;48.133181;-1.533969;true
odf_254002272;254002272;ADACL Landes;AGCT;175 Place de la Caserne Bosquet 40000 Mont-de-Marsan;;;https://www.data.gouv.fr/fr/organizations/agence-departementale-daide-aux-collectivites-locales-des-landes/#organization-datasets;;;datagouv;d_6_10;DataGouv;DataGouv;Equipements;;40;Landes;NAQ;75;410355;p_250_500;43.896897;-0.493175;false
odf_306966110;306966110;ADEUPa;OACT;18 Rue Jean Jaurès 29200 Brest;https://opendata.brest-metropole.fr/explore/?sort=modified&refine.publisher=ADEUPa;12;;;;ptf;d_11_25;OpenDataSoft;Opendata Brest Metropole;Economie-Urbanisme;;29;Finistère;BRE;53;;p_na;48.391773;-4.483744;0
odf_384452611;384452611;ADICO SMI OISE;AGCT;5 Rue Jean Monnet 60000 Beauvais;https://opendata.adico.fr/fr/dataset?organization=adico;1;;68;;ptf;d_1_5;CKAN;Opendata ADICO 60;Administratif;;60;Oise;HDF;32;;p_na;49.444724;2.101907;1
odf_214700015;214700015;AGEN;COM;Place Docteur Pierre Esquirol 47000 Agen;https://data.agen.fr/explore/?refine.publisher=Mairie+d%27Agen;5;https://www.data.gouv.fr/fr/organizations/5bec29278b4c412a07c7ee5f/;;5bec29278b4c412a07c7ee5f;ptf+datagouv;d_51_100;OpenDataSoft;Data Agen;;Mairie d'Agen;47;Lot-et-Garonne;NAQ;75;34956;p_25_50;44.202896;0.615474;TRUE
odf_776258261;776258261;AGENCE DE DEV. TOURISTIQUE DE L'ARDECHE;OACT;6 Route des Mînes 07000 Privas;https://opendata.ardeche.fr/group/agence-de-développement-touristique-de-lardèche;3;;2;;ptf;d_1_5;CKAN;Opendata Ardèche;Tourisme;;7;Ardèche;ARA;84;;p_na;44.72712;4.585969;FALSE
odf_216400085;216400085;AHAXE-ALCIETTE-BASCASSAN;COM;64220 AHAXE-ALCIETTE-BASCASSAN;;;https://www.data.gouv.fr/fr/organizations/ahaxe-alciette-bascassan/;1;5f55fc85c2d347d5abab8c57;datagouv;d_1_5;DataGouv;DataGouv;Equipements;;64;Pyrénées-Atlantiques;NAQ;75;271;na;43.1450099;-1.1641302;YES
odf_210500039;210500039;AIGUILLES;COM;Chemin de Chalvet 05470 Aiguilles;;;https://www.data.gouv.fr/fr/organizations/aiguilles/;1;;datagouv;d_1_5;DataGouv;DataGouv;Equipements;;5;Hautes-Alpes;PAC;93;411;na;44.782807;6.862459;NO
odf_256404393;256404393;AGENCE PUBLIQUE DE GESTION LOCALE PYR. ATLANTIQUES;AGCT;Rue Auguste Renoir 64000 Pau;;;https://www.data.gouv.fr/fr/organizations/5c94a888634f415e8c85de26/;2;5c94a888634f415e8c85de26;datagouv;d_1_5;DataGouv;DataGouv;;;64;Pyrénées-Atlantiques;NAQ;75;;p_na;43.310202;-0.358364;
odf_216400135;216400135;AINHICE MONGELOS;COM;64220 AINHICE-MONGELOS;;;https://www.data.gouv.fr/fr/organizations/5f340b1cfbebbe5c7c80d24e/;;5f340b1cfbebbe5c7c80d24e;datagouv;d_1_5;DataGouv;DataGouv;Equipements;;64;Pyrénées-Atlantiques;NAQ;75;173;na;43.2032692;-1.1550737;
odf_210400016;210400016;AIGLUN;COM;Av des Docteurs P et M Jouve 04510 Aiglun;https://trouver.datasud.fr/organization/commune-daiglun-04;4;;;;ptf;d_1_5;CKAN;Data Sud;Culture-Administratif;;4;Alpes-de-Haute-Provence;PAC;93;1384;p_1_5;44.050292;6.14253;
odf_404453110;404453110;AIR BREIZH;OACT;3 Rue du Bosphore 35200 Rennes;http://data.airbreizh.asso.fr/geonetwork/srv/fre/catalog.search#/search?facet.q=type%2Fdataset;29;;12;;ptf;d_26_50;GeoNetwork;Data Air Breizh;Environnement;;35;Ille-et-Vilaine;BRE;53;;p_na;48.082566;-1.680064;
odf_220100010;220100010;AIN;DEP;45 Avenue Alsace Lorraine 01000 Bourg-en-Bresse;http://departement-ain.opendata.arcgis.com/datasets?source=D%C3%A9partement%20de%20l%27Ain;39;https://www.data.gouv.fr/fr/organizations/5851009688ee3870fbc65bb3;3;5851009688ee3870fbc65bb3;ptf+datagouv;d_51_100;ArcGIS;Opendata Ain;Environnement-Urbanisme-Transport;;1;Ain;ARA;84;653688;p_500_1000;46.202432;5.223768;
odf_216400119;216400119;AINCILE;COM;64220 AINCILLE;;;https://www.data.gouv.fr/fr/organizations/aincille/;10;;datagouv;d_1_5;DataGouv;DataGouv;Equipements;;64;Pyrénées-Atlantiques;NAQ;75;114;na;43.1444852;-1.1946692;
odf_323266205;323266205;AIR PAYS DE LA LOIRE;OACT;5 Rue Edouard Nignon 44300 Nantes;https://data.airpl.org/geonetwork/srv/fre/catalog.search#/search?facet.q=type%2Fdataset;28;https://www.data.gouv.fr/fr/organizations/534fff53a3a7292c64a77cd7/;1;534fff53a3a7292c64a77cd7;ptf+datagouv;d_26_50;GeoNetwork;Data Air Pays de la Loire;Environnement;;44;Loire-Atlantique;PDL;52;;p_na;47.276235;-1.511075;
odf_216400143;216400143;AINHOA;COM;64250 AINHOA;;;https://www.data.gouv.fr/fr/organizations/commune-dainhoa/;1;5d4834076f444118283abfcf;datagouv;d_1_5;DataGouv;DataGouv;Equipements;;64;Pyrénées-Atlantiques;NAQ;75;671;na;43.3064899;-1.4985315;
odf_214000010;214000010;AIRE SUR L'ADOUR;COM;Place du General de Gaulle 40800 Aire-sur-l'Adour;;;https://www.data.gouv.fr/fr/organizations/5b9a1371634f417f35dc4a7c/;;5b9a1371634f417f35dc4a7c;datagouv;d_1_5;DataGouv;DataGouv;Equipements;;40;Landes;NAQ;75;6099;p_5_10;43.702303;-0.262221;
odf_211300017;211300017;AIX EN PROVENCE;COM;Place de l’Hotel de Ville 13100 Aix-en-Provence;https://aix-en-provence.opendatasoft.com/explore/?sort=modified&refine.publisher=Ville+d%27Aix+en+Provence;3;;;;ptf;d_1_5;OpenDataSoft;Aix en Provence Open Data;Administratif;Ville d'Aix en Provence;13;Bouches-du-Rhône;PAC;93;143006;p_100_250;43.529931;5.447869;
odf_392178570;392178570;AGENCE DE TOURISME DE LA CORSE;OACT;17 Boulevard du Roi Jerome 20000 Ajaccio;https://www.data.corsica/explore/?refine.publisher=Agence+de+Tourisme+de+la+Corse;14;;13;;ptf;d_11_25;OpenDataSoft;Data Corsica;Tourisme;Agence de Tourisme de la Corse;2A;Corse-du-Sud;COR;94;;p_na;41.921557;8.739033;
odf_316465236;316465236;AIRPARIF;OACT;7 Rue Crillon 75004 Paris;https://data-airparif-asso.opendata.arcgis.com/datasets;161;https://www.data.gouv.fr/fr/organizations/5a4381adc751df74bae4627d/;1;5a4381adc751df74bae4627d;ptf+datagouv;d_101_250;ArcGIS;Data Airparif;Environnement;;75;Paris;IDF;11;;p_na;48.848962;2.36528;
odf_217300086;217300086;AIX LES BAINS;COM;Place Maurice Mollard 73100 Aix-les-Bains;;;https://www.data.gouv.fr/fr/organizations/5ab9e75188ee387964e77c2b/;;5ab9e75188ee387964e77c2b;datagouv;d_1_5;DataGouv;DataGouv;Citoyenneté;;73;Savoie;ARA;84;30291;p_25_50;45.688567;5.915634;
odf_218100048;218100048;ALBI;COM;16 Rue de l’Hôtel de Ville 81000 Albi;https://opendata.mairie-albi.fr/dataset?q=;24;;1;;ptf;d_11_25;CKAN;Opendata Albi;Administratif-Culture-Santé-Transport-Citoyenneté-Environnement-Equipements;;81;Tarn;OCC;76;48970;p_25_50;43.927146;2.146534;
odf_218700102;218700102;AIXE SUR VIENNE;COM;44 Avenue du Président Wilson 87700 Aixe-sur-Vienne;;;https://www.data.gouv.fr/fr/organizations/commune-daixe-sur-vienne/;1;;datagouv;d_1_5;DataGouv;DataGouv;Equipements;;87;Haute-Vienne;NAQ;75;5820;p_5_10;45.796673;1.136187;
odf_215600016;215600016;ALLAIRE;COM;Bande de la Mehaterie 56350 Allaire;;;https://www.data.gouv.fr/fr/organizations/5a1d2901c751df5e50300f1c;;5a1d2901c751df5e50300f1c;datagouv;d_1_5;DataGouv;DataGouv;Administratif;;56;Morbihan;BRE;53;3902;p_1_5;47.659155;-2.184954;
odf_287500052;287500052;AGENCE DES ESPACES VERTS ILE DE FRANCE;OACT;90 Avenue du Général Leclerc 93500 Pantin;https://data.iledefrance.fr/explore/?sort=modified&refine.publisher=Agence+des+espaces+verts+d%27%C3%8Ele+de+France+(AEV);23;;;;ptf;d_11_25;OpenDataSoft;Data Ile de France;Environnement-Equipements;Agence des espaces verts d'Île de France (AEV);93;Seine-Saint-Denis;IDF;11;;p_na;48.896651;2.402616;
odf_220400014;220400014;ALPES DE HAUTE PROVENCE;DEP;13 Avenue du Docteur Romieu 04000 Digne-les-Bains;https://trouver.datasud.fr/organization/conseil-departemental-des-alpes-de-haute-provence;34;;24;;ptf;d_26_50;CKAN;Data Sud;Culture-Citoyenneté-Administratif-Environnement-Sports-Equipements;;4;Alpes-de-Haute-Provence;PAC;93;161980;p_100_250;44.091996;6.237268;
odf_220600019;220600019;ALPES MARITIMES;DEP;147 Boulevard du Mercantour 06200 Nice;https://data.departement06.fr;24;https://www.data.gouv.fr/fr/organizations/5e00c7456f444104766e92d6/;5;5e00c7456f444104766e92d6;ptf+datagouv;d_26_50;OpenDataSoft;Data Alpes Maritimes 06;Culture-Tourisme-Equipements-Environnement-Administratif-Citoyenneté;;6;Alpes-Maritimes;PAC;93;1083704;p_1000_5000.001;43.67538;7.19965;
odf_254003304;254003304;ALPI 40 LANDE;AGCT;175 Place de la Caserne Bosquet 40000 Mont-de-Marsan;https://www.pigma.org/datanouvelleaquitaine/dataset?sort=score+desc%2C+metadata_modified+desc&organization=agence_landaise_pour_l_informatique&q=alpi&ext_bbox=&ext_prev_extent=-6.0205078125%2C41.77131167976407%2C6.8115234375%2C47.989921667414194;4;https://www.data.gouv.fr/fr/organizations/59b2610dc751df4ea9075aea/;3;59b2610dc751df4ea9075aea;ptf+datagouv;d_6_10;DataGouv-CKAN;DataGouv-Data Nouvelle Aquitaine PIGMA;Administratif-Social;;40;Landes;NAQ;75;;p_na;43.896897;-0.493175;
odf_213000102;213000102;ANDUZE;COM;1 Plan de Brie 30140 Anduze;;;https://www.data.gouv.fr/fr/organizations/5c49b5498b4c4139d1714d76/;;5c49b5498b4c4139d1714d76;datagouv;d_1_5;DataGouv;DataGouv;Administratif;;30;Gard;OCC;76;3484;p_1_5;44.053952;3.987439;
odf_214900078;214900078;ANGERS;COM;Boulevard de la Résistance et de la Déportation 49100 Angers;https://data.angers.fr/explore/?refine.publisher=Ville+d%27Angers;45;;115;;ptf;d_26_50;OpenDataSoft;Data Angers;Administratif-Citoyenneté-Culture-Equipements;Ville d'Angers;49;Maine-et-Loire;PDL;52;155984;p_100_250;47.471242;-0.547583;
odf_244900015;244900015;ANGERS LOIRE METROPOLE;CU;83 Rue du Mail 49100 Angers;https://data.angers.fr/explore/?refine.publisher=Angers+Loire+M%C3%A9tropole;36;https://www.data.gouv.fr/fr/organizations/538346d6a3a72906c7ec5c36;;538346d6a3a72906c7ec5c36;ptf+datagouv;d_101_250;OpenDataSoft;Data Angers;Urbanisme-Transport-Environnement-Citoyenneté-Administratif-Culture;Angers Loire Métropole;49;Maine-et-Loire;PDL;52;293701;p_250_500;47.4719;-0.547983;
odf_216400242;216400242;ANGLET;COM;Rue Amédée Dufourg 64600 Anglet;https://anglet-opendatapaysbasque.opendatasoft.com/explore/?sort=modified;19;;1;;ptf;d_11_25;OpenDataSoft;Opendata Anglet;Administratif-Culture-Citoyenneté-Environnement-Equipements-Sports;;64;Pyrénées-Atlantiques;NAQ;75;38929;p_25_50;43.481205;-1.515003;
odf_200063402;200063402;ANNECY;COM;Esplanade de l’Hôtel de Ville 74000 Annecy;;;https://www.data.gouv.fr/fr/organizations/ville-dannecy/;;;datagouv;d_1_5;DataGouv;DataGouv;Environnement;;74;Haute-Savoie;ARA;84;128199;p_100_250;45.898745;6.128526;
odf_210600045;210600045;ANTIBES JUAN LES PINS;COM;Cours Masséna 06600 Antibes;https://trouver.datasud.fr/organization/ville-dantibes-juan-les-pins;107;;;;ptf;d_101_250;CKAN;Data Sud;Santé-Culture-Administratif-Citoyenneté-Energie-Environnement-Equipements-Transport;;6;Alpes-Maritimes;PAC;93;76119;p_50_100;43.580746;7.127431;
odf_784237539;784237539;APUR;OACT;15 Rue Jean-Baptiste Berlier 75013 Paris;http://opendata.apur.org/datasets;99;;;;ptf;d_51_100;ArcGIS;Opendata APUR;Urbanisme-Transport-Equipements-Administratif-Culture-Environnement;;75;Paris;IDF;11;;p_na;48.825563;2.38353;
odf_305350795;305350795;ARCADE;OACT;6 Place Barthelemy Niollon 13100 Aix-en-Provence;https://trouver.datasud.fr/organization/arcade;4;;;;ptf;d_1_5;CKAN;Data Sud;Culture;;13;Bouches-du-Rhône;PAC;93;;p_na;43.527206;5.443231;
odf_451366611;451366611;ARCADI ILE DE FRANCE;OACT;51 Rue du Faubourg Saint-Denis 75010 Paris;https://data.iledefrance.fr/explore/?refine.publisher=Arcadi;10;;;;ptf;d_6_10;OpenDataSoft;Data Ile de France;Culture;Arcadi;75;Paris;IDF;11;;p_na;48.871796;2.353647;
odf_220700017;220700017;ARDECHE;DEP;Boulevard de la Chaumette 07000 Privas;https://opendata.ardeche.fr/search/type/dataset;17;;;;ptf;d_11_25;CKAN;Opendata Ardèche;Culture-Environnement-Equipements-Santé-Social-Tourisme-Transport;;7;Ardèche;ARA;84;327011;p_250_500;44.736875;4.604631;
odf_487977985;487977985;ARDTA;OACT;7 Allée Pierre de Fermat 63170 Aubière;http://opendata.auvergnerhonealpes.eu/7-les-donnees.htm?facet.provider%5B%5D=Agence+r%C3%A9gionale+de+d%C3%A9veloppement+des+territoires+d%27Auvergne+%28ARDTA%29;14;;;;ptf;d_11_25;Spécifique;Opendata Auvergne Rhône Alpes;Economie-Social;;63;Puy-de-Dôme;ARA;84;;p_na;45.759438;3.136113;
odf_219500188;219500188;ARGENTEUIL;COM;12 Boulevard Leon Feix 95100 Argenteuil;;;https://www.data.gouv.fr/fr/organizations/ville-dargenteuil/;2;;datagouv;d_na;DataGouv;DataGouv;Equipements;;95;Val-D'Oise;IDF;11;110213;p_100_250;48.946945;2.249314;
odf_216400457;216400457;ARHANSUS;COM;64120 ARHANSUS;;;https://www.data.gouv.fr/fr/organizations/arhansus/;1;5e66099d634f411da2f28cfd;datagouv;d_1_5;DataGouv;DataGouv;Equipements;;64;Pyrénées-Atlantiques;NAQ;75;74;na;43.2574695;-1.0355285;
odf_220900013;220900013;ARIEGE;DEP;5 Rue du Cap de la Ville 09000 Foix;;;https://www.data.gouv.fr/fr/organizations/5a90060ec751df1402f350d8/;;5a90060ec751df1402f350d8;datagouv;d_1_5;DataGouv;DataGouv;Administratif;;9;Ariège;OCC;76;152340;p_100_250;42.962777;1.6005;
odf_447740036;447740036;ARL PACA;OACT;8 Rue des Allumettes 13090 Aix-en-Provence;https://trouver.datasud.fr/organization/agence-regionale-du-livre-provence-alpes-cote-dazur;4;;;;datagouv;d_1_5;DataGouv;DataGouv;Culture;;13;Bouches-du-Rhône;PAC;93;;p_na;43.52439;5.439656;
odf_215900176;215900176;ARMENTIERES;COM;Place du General de Gaulle 59280 Armentières;https://opendata.lillemetropole.fr/explore/?refine.publisher=Ville+d%27ARMENTIERES;2;;2;;ptf;d_1_5;OpenDataSoft;Opendata Lille Métropole;Administratif;Ville d'ARMENTIERES;59;Nord;HDF;32;25445;p_25_50;50.686549;2.881634;
odf_210500070;210500070;ARVIEUX;COM;Impasse de la Rochaille 05350 Arvieux;;;https://www.data.gouv.fr/fr/organizations/arvieux/;1;;datagouv;d_1_5;DataGouv;DataGouv;Equipements;;5;Hautes-Alpes;PAC;93;361;na;44.753704;6.757364;
odf_216400663;216400663;ASCARAT;COM;64220 ASCARAT;;;https://www.data.gouv.fr/fr/organizations/ascarat/;1;;datagouv;d_1_5;DataGouv;DataGouv;Equipements;;64;Pyrénées-Atlantiques;NAQ;75;318;na;43.1692894;-1.2551983;
odf_219200045;219200045;ASNIERES SUR SEINE;COM;1 Place de l’Hotel de Ville 92600 Asnières-sur-Seine;https://opendata.hauts-de-seine.fr/explore/?refine.publisher=Ville+d%27Asnières-sur-Seine;5;https://www.data.gouv.fr/fr/organizations/5a61b7a7c751df3fd36ac81a;1;5a61b7a7c751df3fd36ac81a;ptf+datagouv;d_6_10;OpenDataSoft;Opendata Hauts de Seine;Equipements-Transport-Culture;Ville d'Asnières-sur-Seine;92;Hauts-de-Seine;IDF;11;87286;p_50_100;48.910692;2.288989;
odf_210500088;210500088;ASPREMONT(05);COM;Chemin de Hauteville 05140 Aspremont;;;https://www.data.gouv.fr/fr/organizations/aspremont-05/;1;;datagouv;d_1_5;DataGouv;DataGouv;Equipements;;5;Hautes-Alpes;PAC;93;363;na;44.484254;5.705453;
odf_210500096;210500096;ASPRES-LES-CORPS;COM;Chemin de la Vielle 05800 Aspres-lès-Corps;;;https://www.data.gouv.fr/fr/organizations/aspres-les-corps/;1;;datagouv;d_1_5;DataGouv;DataGouv;Equipements;;5;Hautes-Alpes;PAC;93;102;na;44.80362;5.974442;
odf_210500104;210500104;ASPRES-SUR-BUECH;COM;Grande Rue 05140 Aspres-sur-Buëch;;;https://www.data.gouv.fr/fr/organizations/aspres-sur-buech/;5;;datagouv;d_1_5;DataGouv;DataGouv;Equipements;;5;Hautes-Alpes;PAC;93;812;na;44.522922;5.750567;
odf_200050714;200050714;ATD 36 INDRE;OACT;Pl de la Victoire et des Allies 36000 Châteauroux;;;https://www.data.gouv.fr/fr/organizations/5aa95464c751df7c5ded72f6/;1;5aa95464c751df7c5ded72f6;datagouv;d_1_5;DataGouv;DataGouv;Administratif;;36;Indre;CVL;24;;p_na;46.812027;1.687127;
odf_200044543;200044543;ATD DE LA CHARENTE;OACT;31 Boulevard Emile Roux 16000 Angoulême;;;https://www.data.gouv.fr/fr/organizations/agence-technique-departementale-de-la-charente/;1;;datagouv;d_1_5;DataGouv;DataGouv;Equipements;;16;Charente;NAQ;75;351778;p_250_500;45.645692;0.157959;
odf_252405147;252405147;ATD DE LA DORDOGNE;OACT;2 Place Hoche 24000 Périgueux;;;https://www.data.gouv.fr/fr/organizations/agence-technique-departementale-de-la-dordogne/;6;;datagouv;d_1_5;DataGouv;DataGouv;Equipements;;24;Dordogne;NAQ;75;413418;p_250_500;45.181895;0.721408;
odf_534194451;534194451;ATMO AUVERGNE RHONE ALPES;OACT;3 Allée des Sorbiers 69500 Bron;https://data-atmoaura.opendata.arcgis.com/datasets;203;https://www.data.gouv.fr/fr/organizations/59a538b688ee386b121578b9/;;59a538b688ee386b121578b9;ptf+datagouv;d_101_250;ArcGIS;Atmo Aura Open Data;Environnement;;69;Rhône;ARA;84;;p_na;45.738447;4.931805;
odf_829854181;829854181;ATMO BOURGOGNE FRANCHE COMTE;OACT;37 Rue Battant 25000 Besançon;https://www.atmo-bfc.org/opendata;20;;;;ptf;d_11_25;Spécifique;Atmo Bfc Open Data;Environnement;;25;Doubs;BFC;27;;p_na;47.2415;6.02046;
odf_822734307;822734307;ATMO GRAND EST;OACT;5 Rue de Madrid 67300 Schiltigheim;https://data-atmograndest.opendata.arcgis.com/datasets;142;;;;ptf;d_101_250;ArcGIS;Atmo Grand Est Open Data;Environnement;;67;Bas-Rhin;GES;44;;p_na;48.608876;7.708391;
odf_420010878;420010878;ATMO GUYANE;OACT;ZI Indust Degrad des Cann 97354 Remire-Montjoly;https://data-atmo-guyane.opendata.arcgis.com/datasets;22;;;;ptf;d_11_25;ArcGIS;Atmo Guyane;Environnement;;973;Guyane;GF;3;;p_na;4.857396;-52.273294;
odf_478029127;478029127;ATMO HAUTS DE FRANCE;OACT;199 Rue Colbert 59800 Lille;https://data-atmo-hdf.opendata.arcgis.com/datasets;57;;;;ptf;d_51_100;ArcGIS;Atmo Hauts de France Open Data;Environnement;;59;Nord;HDF;32;;p_na;50.634584;3.040832;
odf_488233313;488233313;ATMO NORMANDIE;OACT;3 Place de la Pomme d’Or 76000 Rouen;https://datas-atmonormandie.opendata.arcgis.com/datasets;59;;7;;ptf;d_51_100;ArcGIS;Atmo Normandie Open Data;Environnement;;76;Seine-Maritime;NOR;28;;p_na;49.443109;1.103233;
odf_311059422;311059422;ATMO NOUVELLE AQUITAINE;OACT;13 Allée James Watt 33700 Mérignac;https://data-atmo-na.opendata.arcgis.com/datasets;349;https://www.data.gouv.fr/fr/organizations/534fff53a3a7292c64a77cd9/;;534fff53a3a7292c64a77cd9;ptf+datagouv;d_251_500;ArcGIS;Atmo Nouvelle Aquitaine Open Data;Environnement;;33;Gironde;NAQ;75;;p_na;44.830211;-0.673861;
odf_308599703;308599703;ATMO OCCITANIE;OACT;Rue Louis Lepine 34470 Pérols;https://data-atmo-occitanie.opendata.arcgis.com/datasets;38;;;;ptf;d_26_50;ArcGIS;Atmo Occitanie Open Data;Environnement;;34;Hérault;OCC;76;;p_na;43.57552;3.946579;
odf_422969667;422969667;ATMO REUNION;OACT;7 Rue Mahé 97438 Sainte-Marie;https://data-atmoreunion.opendata.arcgis.com/datasets;15;;16;;ptf;d_11_25;ArcGIS;Atmo Réunion Open Data;Environnement;;974;La Réunion;RE;4;;p_na;-20.896017;55.53407;
odf_324465632;324465632;ATMO SUD;OACT;146 Rue Paradis 13006 Marseille;https://trouver.datasud.fr/organization/atmosud;16;https://www.data.gouv.fr/fr/organizations/5b9fb3678b4c416ff2277bb5/;1;5b9fb3678b4c416ff2277bb5;ptf+datagouv;d_26_50;CKAN;Data Sud;Environnement;;13;Bouches-du-Rhône;PAC;93;;p_na;43.286782;5.37949;
odf_200052488;200052488;ATOUMOD;AGCT;5 Rue Robert Schuman 76000 Rouen;;;https://www.data.gouv.fr/fr/organizations/5cc844dd634f41078d8e2c8e/;1;5cc844dd634f41078d8e2c8e;datagouv;d_1_5;DataGouv;DataGouv;Transport;;76;Seine-Maritime;NOR;28;;p_na;49.438248;1.104128;
odf_221000052;221000052;AUBE;DEP;2 Rue Pierre Labonde 10000 Troyes;;;https://www.data.gouv.fr/fr/organizations/5a216283c751df6333108428/;1;5a216283c751df6333108428;datagouv;d_1_5;DataGouv;DataGouv;Administratif;;10;Aube;GES;44;309117;p_250_500;48.297892;4.078436;
odf_429596190;429596190;AUBE EN CHAMPAGNE TOURISME;OACT;Place de la Liberation 10000 Troyes;;;https://www.data.gouv.fr/fr/organizations/54880126c751df081fa3fc15/;1;54880126c751df081fa3fc15;datagouv;d_1_5;DataGouv;DataGouv;Tourisme;;10;Aube;GES;44;;p_na;48.297584;4.077437;
odf_200077113;200077113;AUBESSAGNE;COM;Derriere le Serre 05800 Aubessagne;;;https://www.data.gouv.fr/fr/organizations/aubessagne/;1;;datagouv;d_1_5;DataGouv;DataGouv;Equipements;;5;Hautes-Alpes;PAC;93;704;na;44.755589;6.008229;
odf_218400042;218400042;AUBIGNAN;COM;1 Place de l’Hotel de Ville 84810 Aubignan;;;https://www.data.gouv.fr/fr/organizations/ville-daubignan;;;datagouv;d_1_5;DataGouv;DataGouv;Equipements;;84;Vaucluse;PAC;93;5719;p_5_10;44.099357;5.025084;
odf_213100225;213100225;AUCAMVILLE;COM;Place Jean-Louis Bazerque 31140 Aucamville;https://data.toulouse-metropole.fr/explore/?refine.publisher=Mairie+d%27Aucamville;4;;;;ptf;d_1_5;OpenDataSoft;Data Toulouse Métropole;Citoyenneté;Mairie d'Aucamville;31;Haute-Garonne;OCC;76;8203;p_5_10;43.669004;1.429464;
odf_221100019;221100019;AUDE;DEP;Plateau de Grazailles 11000 Carcassonne;https://opendata.aude.fr/explore/?sort=modified&refine.publisher=D%C3%A9partement+de+l%27Aude;23;;;;ptf;d_11_25;OpenDataSoft;Opendata Aude;Administratif-Education-Equipements-Transport-Environnement;Département de l'Aude;11;Aude;OCC;76;370260;p_250_500;43.228;2.363588;
odf_213100332;213100332;AUTERIVE;COM;Place du 11 Novembre 31190 Auterive;https://data.laregion.fr/explore/?disjunctive.publisher&sort=modified&refine.publisher=Commune+d%27Auterive;1;;1;;ptf;d_1_5;OpenDataSoft;Data Occitanie;Administratif;Commune d'Auterive;31;Haute-Garonne;OCC;76;9417;p_5_10;43.352594;1.477878;
odf_200021624;200021624;AUTOLIB VELIB METROPOLE;AGCT;82 Boulevard de Sébastopol 75003 Paris;https://opendata.paris.fr/explore/?sort=modified&refine.publisher=Autolib+Velib+M%C3%A9tropole+&refine.publisher=Autolib+Velib+M%C3%A9tropole&disjunctive.theme&disjunctive.publisher&disjunctive.keyword&disjunctive.modified&disjunctive.features;2;https://www.data.gouv.fr/fr/organizations/55b10bbcc751df773d10ccc3/;4;55b10bbcc751df773d10ccc3;ptf+datagouv;d_1_5;OpenDataSoft;Opendata Paris;Transport;Autolib Velib Métropole;75;Paris;IDF;11;;p_na;48.865484;2.352344;
odf_217100148;217100148;AUTUN;COM;Rue de la Place du Champ de Mars 71400 Autun;https://www.databfc.fr/bfc/portail;4;https://www.data.gouv.fr/fr/organizations/5bb47c2a634f416334276b4f/;;5bb47c2a634f416334276b4f;ptf+datagouv;d_6_10;CKAN-CKAN;Data BFC-IDéO - Portail Opendata BFC;Administratif-Citoyenneté-Social;;71;Saône-et-Loire;BFC;27;13635;p_10_25;46.950109;4.298011;
odf_200053767;200053767;AUVERGNE RHONE ALPES;REG;1 Esplanade Francois Mitterrand 69002 Lyon;http://opendata.auvergnerhonealpes.eu/7-les-donnees.htm?facet.provider[]=R%C3%A9gion%20Auvergne%20Rh%C3%B4ne-Alpes&from=0;71;;;;ptf;d_51_100;Spécifique;Opendata Auvergne Rhône Alpes;Administratif-Tourisme-Equipements-Economie-Education;;69;Rhône;ARA;84;8027000;p_1000_5000.001;45.740575;4.820078;
odf_824433866;824433866;AUVERGNE RHONE ALPES TOURISME;OACT;11bis Quai Perrache 69002 Lyon;http://opendata.auvergnerhonealpes.eu/7-les-donnees.htm?facet.provider%5B%5D=Comit%C3%A9+R%C3%A9gional+de+D%C3%A9veloppement+touristique+d%E2%80%99Auvergne+%28CRDTA%29;12;;;;ptf;d_11_25;Spécifique;Opendata Auvergne Rhône Alpes;Tourisme;;69;Rhône;ARA;84;;p_na;45.74629;4.828188;
odf_218400075;218400075;AVIGNON;COM;Place de l’Horloge 84000 Avignon;https://trouver.datasud.fr/organization/avignon;42;;2;;ptf;d_26_50;CKAN;Data Sud;Administratif-Citoyenneté-Culture-Education-Environnement-Equipements-Transport-Urbanisme;;84;Vaucluse;PAC;93;93968;p_50_100;43.949642;4.806251;
odf_216400861;216400861;AYHERRE;COM;64240 AYHERRE;;;https://www.data.gouv.fr/fr/organizations/ayherre/;;5cfa61b1634f411763ec4dff;datagouv;d_1_5;DataGouv;DataGouv;Equipements;;64;Pyrénées-Atlantiques;NAQ;75;1068;p_1_5;43.3921574;-1.2539606;
odf_216500595;216500595;BAGNERES DE BIGORRE;COM;Place des Vignaux 65200 Bagnères-de-Bigorre;https://opendata.ha-py.fr/pages/bagneres-de-bigorre/;13;;;;ptf;d_11_25;OpenDataSoft;Opendata Hautes Pyrénées;Télécom-Santé-Equipements-Administratif-Economie-Transport;;65;Hautes-Pyrénées;OCC;76;7103;p_5_10;43.067007;0.15018;
odf_213400229;213400229;BAILLARGUES;COM;Allee du Cabernet 34670 Baillargues;http://data.montpellier3m.fr/datasets/commune/baillargues;26;;8;;ptf;d_26_50;CKAN;Data Montpellier3M;Economie-Environnement-Santé-Transport-Equipements-Administratif-Citoyenneté;;34;Hérault;OCC;76;7202;p_5_10;43.649688;4.007641;
odf_213500135;213500135;BAINS SUR OUST;COM;2 Place de la Mairie 35600 Bains-sur-Oust;;;https://www.data.gouv.fr/fr/organizations/5a1d64a3c751df51a9440eae;;5a1d64a3c751df51a9440eae;datagouv;d_6_10;DataGouv;DataGouv;Administratif-Social-Tourisme;;35;Ille-et-Vilaine;BRE;53;3524;p_1_5;47.705403;-2.072124;
odf_213100449;213100449;BALMA;COM;8 Allée de l’Appel du 18 Juin 1940 31130 Balma;https://data.toulouse-metropole.fr/explore/?refine.publisher=Mairie+de+Balma;4;;;;ptf;d_1_5;OpenDataSoft;Data Toulouse Métropole;Sports-Environnement-Education;Mairie de Balma;31;Haute-Garonne;OCC;76;16140;p_10_25;43.6059;1.50011;
odf_218300093;218300093;BANDOL;COM;Allee Jean Moulin 83150 Bandol;https://opendata.sictiam.fr/fr/organization/mairie-de-bandol;1;;32;;ptf;d_1_5;OpenDataSoft;Data Sicoval;Social;;83;Var;PAC;93;8122;p_5_10;43.135824;5.754608;
odf_215500299;215500299;BAR LE DUC;COM;12 Rue Lapique 55000 Bar-le-Duc;;;https://www.data.gouv.fr/fr/organizations/56b89c46c751df22549f9dea;1;56b89c46c751df22549f9dea;datagouv;d_26_50;DataGouv;DataGouv;Administratif-Education-Culture-Economie;;55;Meuse;GES;44;16337;p_10_25;48.771366;5.162416;
odf_211200563;211200563;BARAQUEVILLE;COM;42 Rue de la Mairie 12160 Baraqueville;;;https://www.data.gouv.fr/fr/organizations/59bf94cec751df629f10513d/;1;59bf94cec751df629f10513d;datagouv;d_1_5;DataGouv;DataGouv;Urbanisme;;12;Aveyron;OCC;76;3141;p_1_5;44.277908;2.431018;
odf_210500120;210500120;BARATIER;COM;Ruelle de la Fontaine 05200 Baratier;;;https://www.data.gouv.fr/fr/datasets/base-adresse-locale-bal-de-la-commune-de-baratier-05012/;1;;datagouv;d_1_5;DataGouv;DataGouv;Equipements;;5;Hautes-Alpes;PAC;93;612;na;44.5384;6.495298;
odf_210400198;210400198;BARCELONNETTE;COM;Place Saint-Pierre 04400 Barcelonnette;;;https://www.data.gouv.fr/fr/datasets/base-adresse-locale-bal-de-la-commune-de-barcelonnette-04019/;100;;datagouv;d_1_5;DataGouv;DataGouv;Equipements;;4;Alpes-de-Haute-Provence;PAC;93;2575;p_1_5;44.387537;6.651518;
odf_226700011;226700011;BAS RHIN;DEP;Place du Quartier Blanc 67000 Strasbourg;;;https://www.data.gouv.fr/fr/organizations/5abcf3c688ee386e18f7f79c/;;5abcf3c688ee386e18f7f79c;datagouv;d_51_100;DataGouv;DataGouv;Administratif-Urbanisme-Environnement-Equipements-Social-Transport;;67;Bas-Rhin;GES;44;1120000;p_1000_5000.001;48.579173;7.739563;
odf_245400601;245400601;BASSIN DE POMPEY;CC;Rue des 4 Elements 54340 Pompey;https://data.bassinpompey.fr/donnees-collectivite;2;;;;ptf;d_1_5;OpenDataGazette;Bassin de Pompey;Equipements-Administratif;;54;Meurthe-et-Moselle;GES;44;41208;p_25_50;48.771391;6.131952;
odf_214400103;214400103;BATZ SUR MER;COM;34 Rue Jean XXIII 44740 Batz-sur-Mer;https://data.paysdelaloire.fr/explore/?disjunctive.diffuseur&disjunctive.gestionnaire&disjunctive.publisher&source=shared&sort=title&refine.publisher=Batz-sur-Mer;1;;2;;ptf;d_1_5;OpenDataSoft;Data Pays de la Loire;Administratif;Batz-sur-Mer;44;Loire-Atlantique;PDL;52;2974;p_1_5;47.277582;-2.477964;
odf_214000309;214000309;BAUDIGNAN;COM;Déviation du Chemin Départemental n°59 (Pont) Trith-Saint-Léger;;;https://www.data.gouv.fr/fr/datasets/base-adresse-locale-de-la-commune-de-baudignan;52;;datagouv;d_1_5;DataGouv;DataGouv;Equipements;;40;Landes;NAQ;75;52;na;50.3282405;3.4853013;
odf_216401026;216401026;BAYONNE;COM;1 Avenue Maréchal Leclerc 64100 Bayonne;https://www.bayonne.fr/information-transversale/open-data-datagouvfr;52;https://www.data.gouv.fr/fr/datasets/?sort=-created&organization=58d53c4688ee380aeea5e932;;58d53c4688ee380aeea5e932;datagouv;d_101_250;DataGouv;DataGouv;Administratif-Equipements-Economie-Education-Culture-Transport-Environnement-Télécom;;64;Pyrénées-Atlantiques;NAQ;75;51228;p_50_100;43.493505;-1.474908;
odf_213400278;213400278;BEAULIEU;COM;Rue de la Grappe Vermeille 34160 Beaulieu;http://data.montpellier3m.fr/datasets/commune/beaulieu;19;;;;ptf;d_11_25;CKAN;Data Montpellier3M;Administratif-Environnement-Equipements-Transport-Urbanisme;;34;Hérault;OCC;76;1778;p_1_5;43.730225;4.019808;
odf_200064699;200064699;BEAUSSAIS SUR MER;COM;5 Rue Ernest Rouxel 22650 Beaussais-sur-Mer;http://datarmor.cotesdarmor.fr/web/guest/donnees;283;;1;;ptf;d_251_500;MGDIS Open Data;Dat'Armor;Administratif-Citoyenneté-Culture-Education-Environnement-Enfance-Social-Tourisme-Transport-Urbanisme-Economie;;22;Côtes d'Armor;BRE;53;3556;p_1_5;48.578971;-2.139884;
odf_216000562;216000562;BEAUVAIS;COM;1 Rue Desgroux 60000 Beauvais;;;https://www.data.gouv.fr/fr/organizations/587cebc488ee3805cb9b81a4;;587cebc488ee3805cb9b81a4;datagouv;d_1_5;DataGouv;DataGouv;Equipements;;60;Oise;HDF;32;56425;p_50_100;49.429266;2.080582;
odf_215600115;215600115;BEGANNE;COM;Rue du Buisson Rond 56350 Béganne;https://www.opendata56.fr/explore/?refine.publisher=Ville+de+B%C3%A9ganne;2;;;;ptf;d_1_5;OpenDataSoft;Opendata Morbihan 56;Administratif;Ville de Béganne;56;Morbihan;BRE;53;1420;p_1_5;47.595947;-2.241013;
odf_212200042;212200042;BEGARD;COM;Rue de la Gare 22140 Bégard;http://datarmor.cotesdarmor.fr/web/guest/donnees;3;;1;;ptf;d_1_5;MGDIS Open Data;Dat'Armor;Santé-Culture;;22;Côtes d'Armor;BRE;53;4752;p_1_5;48.623112;-3.303031;
odf_216401059;216401059;BEGUIOS;COM;64120 BEGUIOS;;;https://www.data.gouv.fr/fr/organizations/beguios/;1;5dcd6e3d634f411cead9eeb8;datagouv;d_1_5;DataGouv;DataGouv;Equipements;;64;Pyrénées-Atlantiques;NAQ;75;256;na;43.3591235;-1.08641;
odf_216201087;216201087;BERCK SUR MER;COM;1 Rue Henri Elby 62600 Berck;;;https://www.data.gouv.fr/fr/organizations/5f06e7cf3a2888d20686160c/;3;5f06e7cf3a2888d20686160c;datagouv;d_1_5;DataGouv;DataGouv;Administratif;;62;Pas-de-Calais;HDF;32;13726;p_10_25;50.408155;1.592266;
odf_212400378;212400378;BERGERAC;COM;19 Rue Neuve d’Argenson 24100 Bergerac;;;https://www.data.gouv.fr/fr/organizations/5dc4192f8b4c41249cc6a390/;3;5dc4192f8b4c41249cc6a390;datagouv;d_1_5;DataGouv;DataGouv;Administratif-Culture-Environnement;;24;Dordogne;NAQ;75;27419;p_25_50;44.850069;0.484661;
odf_200041481;200041481;BERRY NUMERIQUE;AGCT;Place Marcel Plaisant 18000 Bourges;;;https://www.data.gouv.fr/fr/organizations/5d3f06948b4c410863800078/;10;5d3f06948b4c410863800078;datagouv;d_1_5;DataGouv;DataGouv;Télécom;;18;Cher;CVL;24;;p_na;47.081284;2.395638;
odf_212500565;212500565;BESANCON;COM;2 Rue Mégevand 25000 Besançon;https://trouver.ternum-bfc.fr/organization/commune-de-besancon;10;https://www.data.gouv.fr/fr/organizations/539a5b76a3a7293bc272836c/;;539a5b76a3a7293bc272836c;ptf+datagouv;d_11_25;CKAN-CKAN;Data BFC-IDéO - Portail Opendata BFC;Administratif-Environnement-Transport-Citoyenneté;;25;Doubs;BFC;27;116676;p_100_250;47.2367;6.02209;
odf_214400137;214400137;BESNE;COM;25 Rue de la Mairie 44160 Besné;https://data.agglo-carene.fr/explore/?refine.publisher=Besné;1;;;;ptf;d_1_5;OpenDataSoft;Data Carene;Administratif;Besné;44;Loire-Atlantique;PDL;52;2958;p_1_5;47.39653;-2.09208;
odf_213100696;213100696;BLAGNAC;COM;Place des Arts 31700 Blagnac;https://data.toulouse-metropole.fr/explore/?sort=modified&refine.publisher=Ville+de+Blagnac;76;;;;ptf;d_51_100;OpenDataSoft;Data Toulouse Métropole;Administratif-Citoyenneté-Transport-Culture-Environnement-Equipements-Enfance-Sports-Urbanisme;Ville de Blagnac;31;Haute-Garonne;OCC;76;22983;p_10_25;43.635319;1.39838;
odf_214100182;214100182;BLOIS;COM;9 Place Saint-Louis 41000 Blois;https://data.blois.agglopolys.fr/pages/accueil/;14;;11;;ptf;d_11_25;OpenDataSoft;Data Centre Val de Loire;Administratif-Citoyenneté-Education-Environnement-Enfance-Equipements-Social-Sports-Transport-Urbanisme;;41;Loir-et-Cher;CVL;24;46086;p_25_50;47.588565;1.335934;
odf_214700312;214700312;BOE;COM;Rue Guy Saint-Martin 47550 Boé;;;https://www.data.gouv.fr/fr/organizations/596ca1ecc751df20cc2b38df;3;596ca1ecc751df20cc2b38df;datagouv;d_11_25;DataGouv;DataGouv;Administratif-Citoyenneté-Environnement-Social-Transport-Santé;;47;Lot-et-Garonne;NAQ;75;5679;p_5_10;44.160462;0.627389;
odf_217700376;217700376;BOIS LE ROI;COM;4 Avenue Paul Doumer 77590 Bois-le-Roi;;;https://www.data.gouv.fr/fr/organizations/5e7c7ff9dfaefff40aca1f99/;;5e7c7ff9dfaefff40aca1f99;datagouv;d_1_5;DataGouv;DataGouv;Administratif;;77;Seine-et-Marne;IDF;11;5876;p_5_10;48.47595;2.693678;
odf_219400041;219400041;BOISSY SAINT LEGER;COM;7 Boulevard Leon Revillon 94470 Boissy-Saint-Léger;https://boissy.data4citizen.com/portail?facet.field=[%22organization%22 %22tags%22 %22theme%22 %22features%22]&rows=10&start=0&fq=organization:(boissy);4;;;;ptf;d_1_5;DATA4CITIZEN;Data Boissy Saint Léger;Administratif-Education;;94;Val-de-Marne;IDF;11;15922;p_10_25;48.748008;2.512884;
odf_219100864;219100864;BONDOUFLE;COM;43 Rue Charles de Gaulle 91070 Bondoufle;https://bondoufle-grandparissud.opendatasoft.com;0;;2;;ptf;d_na;OpenDataSoft;Data Grand Paris Sud;Administratif-Citoyenneté-Culture-Economie-Education-Transport-Télécom-Environnement-Equipements;;91;Essonne;IDF;11;9066;p_5_10;48.613411;2.380002;
odf_216401349;216401349;BONLOC;COM;64240 BONLOC;;;https://www.data.gouv.fr/fr/organizations/bonloc/;;;datagouv;d_1_5;DataGouv;DataGouv;Equipements;;64;Pyrénées-Atlantiques;NAQ;75;366;na;43.3680621;-1.2684917;
odf_213300635;213300635;BORDEAUX;COM;Place Pey Berland 33000 Bordeaux;https://opendata.bordeaux-metropole.fr/explore/?disjunctive.publisher&disjunctive.frequence&disjunctive.territoire&sort=title&refine.publisher=Ville+de+Bordeaux;62;;73;;ptf;d_51_100;OpenDataSoft;Opendata Bordeaux Métropole;Administratif-Citoyenneté-Economie-Culture-Environnement-Equipements-Transport;Ville de Bordeaux;33;Gironde;NAQ;75;253812;p_250_500;44.837218;-0.577158;
odf_243300316;243300316;BORDEAUX METROPOLE;MET;Esplanade Charles de Gaulle 33000 Bordeaux;https://opendata.bordeaux-metropole.fr/explore/?disjunctive.publisher&disjunctive.frequence&disjunctive.territoire&sort=title&refine.publisher=Bordeaux+Métropole;187;https://www.data.gouv.fr/fr/organizations/5b0d11f688ee382af4b18c95/;22;5b0d11f688ee382af4b18c95;ptf+datagouv;d_251_500;OpenDataSoft;Opendata Bordeaux Métropole;Administratif-Citoyenneté-Culture-Economie-Education-Enfance-Environnement-Equipements-Finance-Santé-Social-Sports-Transport-Urbanisme;Bordeaux Métropole;33;Gironde;NAQ;75;749595;p_500_1000;44.837742;-0.584513;
odf_219200128;219200128;BOULOGNE BILLANCOURT;COM;26 Avenue Andre Morizet 92100 Boulogne-Billancourt;https://boulognebillancourt-seineouest.opendatasoft.com/explore/?sort=title&refine.publisher=Ville+de+Boulogne-Billancourt;14;https://www.data.gouv.fr/fr/organizations/54d8f2a4c751df1df7467389;1;54d8f2a4c751df1df7467389;ptf+datagouv;d_26_50;OpenDataSoft;Data Grand Paris Seine Ouest;Administratif-Citoyenneté-Social-Santé-Equipements-Urbanisme;Ville de Boulogne-Billancourt;92;Hauts-de-Seine;IDF;11;119127;p_100_250;48.835697;2.240418;
odf_212600589;212600589;BOURG-LES-VALENCE;COM;36 Rue des Jardins 26500 Bourg-lès-Valence;;;https://www.data.gouv.fr/fr/organizations/bourg-les-valence/;;;datagouv;d_1_5;DataGouv;DataGouv;Equipements;;26;Drôme;ARA;84;19889;p_10_25;44.94661;4.894252;
odf_241800507;241800507;BOURGES PLUS AGGLOMERATION;CA;23 Boulevard du Marechal Foch 18000 Bourges;https://data.bourgesplus.fr/pages/accueil/;30;;24;;ptf;d_26_50;OpenDataSoft;Data Bourges Plus;Administratif-Education-Transport-Urbanisme-Equipements;;18;Cher;CVL;24;103304;p_100_250;47.075877;2.406054;
odf_200053726;200053726;BOURGOGNE FRANCHE COMTE;REG;4 Square Castan 25000 Besançon;https://trouver.ternum-bfc.fr/organization/region-bourgogne-franche-comte;24;https://www.data.gouv.fr/fr/organizations/5835cdb988ee383e0bc65bb3;5;5835cdb988ee383e0bc65bb3;ptf+datagouv;d_26_50;CKAN-CKAN;Data BFC-IDéO - Portail Opendata BFC;Transport-Environnement-Education-Télécom-Economie-Tourisme-Equipements;;25;Doubs;BFC;27;2795000;p_1000_5000.001;47.2345;6.0304;
odf_242900314;242900314;BREST METROPOLE;MET;24 Rue Coat Ar Gueven 29200 Brest;https://opendata.brest-metropole.fr/explore/?sort=modified&refine.publisher=Brest+métropole;210;https://www.data.gouv.fr/fr/organizations/534fff5ba3a7292c64a77d19;171;534fff5ba3a7292c64a77d19;ptf+datagouv;d_101_250;OpenDataSoft;Opendata Brest Metropole;Administratif-Citoyenneté-Culture-Education-Enfance-Environnement-Equipements-Social-Tourisme-Transport-Urbanisme;;29;Finistère;BRE;53;209722;p_100_250;48.393709;-4.483055;
odf_233500016;233500016;BRETAGNE;REG;283 Avenue Général George S. Patton 35700 Rennes;https://data.bretagne.bzh/explore/?sort=modified&refine.publisher=R%C3%A9gion+Bretagne;127;https://www.data.gouv.fr/fr/organizations/559a4970c751df46a9a453ba;6;559a4970c751df46a9a453ba;ptf+datagouv;d_251_500;OpenDataSoft;Data Bretagne;Administratif-Citoyenneté-Culture-Economie-Education-Environnement-Equipements-Finance-Tourisme-Transport-Urbanisme;Région Bretagne;35;Ille-et-Vilaine;BRE;53;3329000;p_1000_5000.001;48.134736;-1.660295;
odf_213500408;213500408;BRETEIL;COM;Rue de Montfort 35160 Breteil;;;https://www.data.gouv.fr/fr/organizations/5b236d75c751df4eaa3a9b5e/;1;5b236d75c751df4eaa3a9b5e;datagouv;d_6_10;DataGouv;DataGouv;Administratif-Citoyenneté-Social-Equipements-Education;;35;Ille-et-Vilaine;BRE;53;3482;p_1_5;48.145245;-1.900742;
odf_217700533;217700533;BRIE COMTE ROBERT;COM;2 Rue de Verdun 77170 Brie-Comte-Robert;;;https://www.data.gouv.fr/fr/organizations/5b71455e8b4c41290a9c0450/;106;5b71455e8b4c41290a9c0450;datagouv;d_1_5;DataGouv;DataGouv;Administratif;;77;Seine-et-Marne;IDF;11;16635;p_10_25;48.694836;2.611084;
odf_214000564;214000564;BROCAS LES FORGES;COM;44 Place Robert Bezos 40420 Brocas;http://opendata.brocaslesforges.fr/project/jeux-donnees/;15;https://www.data.gouv.fr/fr/organizations/534fff65a3a7292c64a77d76;;534fff65a3a7292c64a77d76;ptf+datagouv;d_101_250;Spécifique;Opendata Brocas Les Forges;Administratif-Citoyenneté-Social-Equipements-Tourisme-Transport-Urbanisme;Commune de Brocas;40;Landes;NAQ;75;808;na;44.044362;-0.536192;
odf_216900290;216900290;BRON;COM;Place de Weingarten 69500 Bron;https://data.grandlyon.com/recherche?responsibleParty.organisationName=Ville%20de%20Bron;4;;;;ptf;d_1_5;GeoNetwork;Data Grand Lyon;Equipements;;69;Rhône;ARA;84;40694;p_25_50;45.73366;4.909219;
odf_852356583;852356583;BROU SUR CHANTEREINE;COM;40 Avenue Jean Jaurès 77177 Brou-sur-Chantereine;https://brou-sur-chantereine-agglo-pvm.opendata.arcgis.com/;2;;1;;ptf;d_1_5;ArcGIS;Data Paris Vallée de la Marne;Administratif-Equipements;;77;Seine-et-Marne;IDF;11;4382;p_1_5;48.879801;2.626763;
odf_410582613;410582613;BUS URBAINS THONONAIS (BUT);DSPT;6 Avenue des Genévriers 74200 Thonon-les-Bains;;;https://www.data.gouv.fr/fr/organizations/5c079a5e8b4c415b9f0f3be2/;2;5c079a5e8b4c415b9f0f3be2;datagouv;d_1_5;DataGouv;DataGouv;Transport;;74;Haute-Savoie;ARA;84;;p_na;46.391496;6.505187;
odf_216401554;216401554;BUSTINCE-IRIBERRY;COM;64220 BUSTINCE-IRIBERRY;;;https://www.data.gouv.fr/fr/organizations/bustince-iriberry/;8;5f3400480daf057063028825;datagouv;d_1_5;DataGouv;DataGouv;Equipements;;64;Pyrénées-Atlantiques;NAQ;75;103;na;43.1834595;-1.1835892;
odf_200011773;200011773;CA ANNEMASSE LES VOIRONS AGGLOMERATION;CA;11 Avenue Émile Zola 74100 Annemasse;;;https://www.data.gouv.fr/fr/organizations/5ca4bacb634f4118ab6dea0f/;;5ca4bacb634f4118ab6dea0f;datagouv;d_6_10;DataGouv;DataGouv;Environnement-Transport;;74;Haute-Savoie;ARA;84;88276;p_50_100;46.19859;6.236053;
odf_200041630;200041630;CA ARDENNE METROPOLE;CA;49 Avenue Léon Bourgeois 08000 Charleville-Mézières;https://ardennemetropole.opendatasoft.com/explore/?sort=modified&refine.publisher=Ardenne+Métropole;10;;16;;ptf;d_6_10;OpenDataSoft;Opendata Ardenne Métropole;Télécom-Transport-Economie;;8;Ardennes;GES;44;123082;p_100_250;49.75394;4.717;
odf_241300417;241300417;CA ARLES CRAU CAMARGUE MONTAGNETTE;CA;5 Rue Yvan Audouard 13200 Arles;https://trouver.datasud.fr/organization/communaute-dagglomeration-arles-crau-camargue-montagnette;17;https://www.data.gouv.fr/fr/organizations/534fff55a3a7292c64a77cde/;57;534fff55a3a7292c64a77cde;ptf;d_26_50;CKAN;Data Sud;Economie-Transport-Equipements;;13;Bouches-du-Rhône;PAC;93;83561;p_50_100;43.673879;4.638792;
odf_200033025;200033025;CA BAR LE DUC SUD MEUSE;CA;12 Rue Lapique 55000 Bar-le-Duc;;;https://www.data.gouv.fr/fr/organizations/56b8a4ffc751df02a29f9deb;1;56b8a4ffc751df02a29f9deb;datagouv;d_51_100;DataGouv;DataGouv;Administratif-Social-Culture;;55;Meuse;GES;44;35851;p_25_50;48.771366;5.162416;
odf_200006682;200006682;CA BEAUNE COTE ET SUD;CA;14 Rue Philippe Trinquet 21200 Beaune;https://trouver.ternum-bfc.fr/organization/beaune-cote-et-sud-communaute-beaune-chagny-nolay;1;https://www.data.gouv.fr/fr/organizations/5bec28758b4c412a07c7ee5e/;1;5bec28758b4c412a07c7ee5e;ptf+datagouv;d_1_5;DataGouv;DataGouv;Culture;;21;Côte-d'Or;BFC;27;52364;p_50_100;47.017451;4.846872;
odf_200039915;200039915;CA CANNES PAYS DE LERINS;CA;Résidence la Joie de Vivre 06400 Cannes;;;https://www.data.gouv.fr/fr/organizations/5b3f6542c751df03439fad72/;;5b3f6542c751df03439fad72;datagouv;d_1_5;DataGouv;DataGouv;Equipements;;6;Alpes-Maritimes;PAC;93;158455;p_100_250;43.556708;6.966771;
odf_200010700;200010700;CA CAUX VALLEE DE SEINE;CA;Impasse du Vallon 76170 Lillebonne;https://opendata.cauxseine.fr;149;;79;;ptf;d_101_250;ArcGIS;Opendata Caux Vallée de Seine;Administratif-Citoyenneté-Culture-Urbanisme-Transport-Tourisme;;76;Seine-Maritime;NOR;28;77114;p_50_100;49.535042;0.520608;
odf_243600327;243600327;CA CHATEAUROUX METROPOLE;CA;Place de la Republique 36000 Châteauroux;https://data.chateauroux-metropole.fr/explore/?sort=title&refine.publisher=CHATEAUROUX+METROPOLE;63;https://www.data.gouv.fr/fr/organizations/5bf67a998b4c417eae692920/;1;5bf67a998b4c417eae692920;ptf+datagouv;d_101_250;OpenDataSoft;Data Châteauroux Métropole;Administratif-Tourisme-Télécom-Equipements-Transport-Environnement-Culture-Education;CHATEAUROUX METROPOLE;36;Indre;CVL;24;73617;p_50_100;46.811543;1.691936;
odf_200057859;200057859;CA COEUR D'ESSONNE AGGLOMERATION;CA;1 Place Saint Exupery 91700 Sainte-Geneviève-des-Bois;;;https://www.data.gouv.fr/fr/organizations/5a5f18afc751df7bae61b648/;2;5a5f18afc751df7bae61b648;datagouv;d_1_5;DataGouv;DataGouv;Environnement;;91;Essonne;IDF;11;196960;p_100_250;48.638261;2.332626;
odf_246800726;246800726;CA COLMAR;CA;32 Cours Sainte Anne 68000 Colmar;;;https://www.data.gouv.fr/fr/organizations/5e44026b8b4c416f93430c66/;1;5e44026b8b4c416f93430c66;datagouv;d_1_5;DataGouv;DataGouv;Equipements-Transport;;68;Haut-Rhin;GES;44;116314;p_100_250;48.080377;7.357919;
odf_243400769;243400769;CA DE BEZIERS MEDITERRANEE;CA;39 Boulevard de Verdun 34500 Béziers;;;https://www.data.gouv.fr/fr/organizations/5b6c2e4b8b4c41287663df35/;;5b6c2e4b8b4c41287663df35;datagouv;d_1_5;DataGouv;DataGouv;Transport;;34;Hérault;OCC;76;123613;p_100_250;43.336234;3.225023;
odf_200030385;200030385;CA DE BLOIS;CA;1 Rue Honore de Balzac 41000 Blois;https://data.blois.agglopolys.fr/pages/accueil/;31;;1;;ptf;d_26_50;OpenDataSoft;Data Centre Val de Loire;Administratif-Citoyenneté-Culture-Education-Urbanisme-Transport-Environnement-Equipements-Economie-Energie-Télécom-Santé;;41;Loir-et-Cher;CVL;24;108871;p_100_250;47.594629;1.329817;
odf_248100430;248100430;CA DE CASTRES MAZAMET;CA;Chemin de Causse 81100 Castres;;;https://www.data.gouv.fr/fr/organizations/5c9398018b4c412692ef9cf7/;15;5c9398018b4c412692ef9cf7;datagouv;d_1_5;DataGouv;DataGouv;Transport;;81;Tarn;OCC;76;78244;p_50_100;43.626921;2.225317;
odf_200066876;200066876;CA DE CHALONS EN CHAMPAGNE;CA;Place du Maréchal Foch 51000 Châlons-en-Champagne;https://opendata-agglo-chalons.opendata.arcgis.com/search;18;https://www.data.gouv.fr/fr/organizations/5badf1f68b4c412c38533e4e/;1;5badf1f68b4c412c38533e4e;ptf+datagouv;d_26_50;ArcGIS;Opendata Agglo Chalons;Equipements-Environnement-Education-Enfance-Santé-Transport;;51;Marne;GES;44;57385;p_50_100;48.956649;4.362286;
odf_200067874;200067874;CA DE HAGUENAU;CA;84 Route de Strasbourg 67500 Haguenau;;;https://www.data.gouv.fr/fr/organizations/5c0f8dfa634f4122be181e6a/;3;5c0f8dfa634f4122be181e6a;datagouv;d_1_5;DataGouv;DataGouv;Transport;;67;Bas-Rhin;GES;44;95739;p_50_100;48.803819;7.768429;
odf_248100737;248100737;CA DE L'ALBIGEOIS;CA;16 Rue de l’Hôtel de Ville 81000 Albi;;;https://www.data.gouv.fr/fr/organizations/5be0257c634f415cecdbb5ff/;1;5be0257c634f415cecdbb5ff;datagouv;d_1_5;DataGouv;DataGouv;Transport;;81;Tarn;OCC;76;82435;p_50_100;43.927146;2.146534;
odf_200067114;200067114;CA DE L'AUXERROIS;CA;6bis Place du Marechal Leclerc 89000 Auxerre;https://trouver.ternum-bfc.fr/organization/communaute-dagglomeration-de-lauxerrois;1;https://www.data.gouv.fr/fr/organizations/5bec4aea8b4c416395a5e99e/;42;5bec4aea8b4c416395a5e99e;ptf+datagouv;d_1_5;DataGouv;DataGouv;Transport;;89;Yonne;BFC;27;68187;p_50_100;47.795286;3.570101;
odf_244400610;244400610;CA DE LA PRESQU'ILE DE GUERANDE ATLANTIQUE;CA;3 Avenue des Noëlles 44500 La Baule-Escoublac;https://capatlantique-loireatlantique.opendatasoft.com/explore/?refine.publisher=Cap+Atlantique;22;https://www.data.gouv.fr/fr/organizations/5cb0688e8b4c410c0750754c/;1;5cb0688e8b4c410c0750754c;ptf+datagouv;d_51_100;OpenDataSoft;Data Cap Atlantique;Tourisme-Transport-Economie-Environnement-Administratif-Citoyenneté;Cap Atlantique;44;Loire-Atlantique;PDL;52;73599;p_50_100;47.291261;-2.394205;
odf_247600786;247600786;CA DE LA REGION DIEPPOISE;CA;4 Boulevard du General de Gaulle 76200 Dieppe;;;https://www.data.gouv.fr/fr/organizations/5c1bb6bf634f416b25009c88/;;5c1bb6bf634f416b25009c88;datagouv;d_1_5;DataGouv;DataGouv;Transport;;76;Seine-Maritime;NOR;28;47223;p_25_50;49.923631;1.080531;
odf_244400644;244400644;CA DE LA REGION NAZAIRIENNE ET DE L'ESTUAIRE;CA;4 Avenue du Commandant l’Herminier 44600 Saint-Nazaire;https://data.agglo-carene.fr/explore/?refine.publisher=CARENE;22;;0;;ptf;d_11_25;OpenDataSoft;Data Carene;Administratif-Urbanisme-Equipements-Citoyenneté-Transport;CARENE;44;Loire-Atlantique;PDL;52;123818;p_100_250;47.28575;-2.21241;
odf_240600551;240600551;CA DE LA RIVIERA FRANCAISE;CA;16 Rue Villarey 06500 Menton;;;https://www.data.gouv.fr/fr/organizations/5bb48e40634f410f9101c8e3/;1;5bb48e40634f410f9101c8e3;datagouv;d_na;DataGouv;DataGouv;Transport;;6;Alpes-Maritimes;PAC;93;71666;p_50_100;43.77628;7.501188;
odf_245300330;245300330;CA DE LAVAL;CA;1 Place du General Ferrie 53000 Laval;;;https://www.data.gouv.fr/fr/organizations/5bc4921f8b4c416a683d003f/;1;5bc4921f8b4c416a683d003f;datagouv;d_1_5;DataGouv;DataGouv;Transport;;53;Mayenne;PDL;52;112937;p_100_250;48.077333;-0.785389;
odf_245804406;245804406;CA DE NEVERS;CA;124 Rue de Marzy 58000 Nevers;https://www.databfc.fr/bfc/portail;9;https://www.data.gouv.fr/fr/organizations/5943987b88ee381f30d196f7;1;5943987b88ee381f30d196f7;ptf+datagouv;d_6_10;CKAN-CKAN;Data BFC-IDéO - Portail Opendata BFC;Transport;;58;Nièvre;BFC;27;34228;p_25_50;46.988185;3.119403;
odf_200073344;200073344;CA DE RAMBOUILLET TERRITOIRES;CA;22 Rue Gustave Eiffel 78120 Rambouillet;;;https://www.data.gouv.fr/fr/organizations/580e1e1388ee385e8e13e4cb;;580e1e1388ee385e8e13e4cb;datagouv;d_1_5;DataGouv;DataGouv;Transport;;78;Yvelines;IDF;11;78443;p_50_100;48.625134;1.824707;
odf_245901160;245901160;CA DE VALENCIENNES METROPOLE;CA;2 Place de l’Hôpital Général 59300 Valenciennes;https://valenciennesmetro.opendatasoft.com/explore/?sort=modified&refine.publisher=CAVM;6;;1;;ptf;d_6_10;OpenDataSoft;Data Grand Paris Seine Ouest;Urbanisme-Tourisme-Environnement;CAVM;59;Nord;HDF;32;192471;p_100_250;50.362457;3.525686;
odf_247000011;247000011;CA DE VESOUL;CA;6 Rue de la Mutualité 70000 Vesoul;https://www.databfc.fr/bfc/portail;1;https://www.data.gouv.fr/fr/organizations/5cd5862c8b4c412132ddb84c/;;5cd5862c8b4c412132ddb84c;datagouv;d_1_5;DataGouv;DataGouv;;;70;Haute-Saône;BFC;27;15058;p_10_25;47.61835;6.152408;
odf_200068989;200068989;CA DINAN AGGLOMERATION;CA;8 Boulevard Simone Veil 22100 Dinan;http://datarmor.cotesdarmor.fr/web/guest/donnees;9;;2;;ptf;d_6_10;MGDIS Open Data;Dat'Armor;Equipements-Culture-Citoyenneté-Social-Transport-Télécom;;22;Côtes d'Armor;BRE;53;96891;p_50_100;48.455631;-2.058462;
odf_248300493;248300493;CA DRACENIE PROVENCE VERDON AGGLOMERATION;CA;7 Rue des Endronnes 83300 Draguignan;https://trouver.datasud.fr/organization/dracenie-provence-verdon-agglomeration;2;https://www.data.gouv.fr/fr/organizations/5baa4a978b4c412a0da6114c/;2;5baa4a978b4c412a0da6114c;ptf+datagouv;d_1_5;CKAN;Data Sud;Administratif-Transport;;83;Var;PAC;93;107518;p_100_250;43.537614;6.465404;
odf_200043172;200043172;CA DU BASSIN DE BRIVE;CA;9 Avenue Leo Lagrange 19100 Brive-la-Gaillarde;;;https://www.data.gouv.fr/fr/organizations/5c9e2c5d634f412729e9e460/;2;5c9e2c5d634f412729e9e460;datagouv;d_1_5;DataGouv;DataGouv;Equipements;;19;Corrèze;NAQ;75;107831;p_100_250;45.159227;1.541561;
odf_246200729;246200729;CA DU BOULONNAIS;CA;1 Boulevard Bassin Napoleon 62200 Boulogne-sur-Mer;;;https://www.data.gouv.fr/fr/organizations/5970a76d88ee38216d112aa1/;;5970a76d88ee38216d112aa1;datagouv;d_1_5;DataGouv;DataGouv;Transport-Environnement;;62;Pas-de-Calais;HDF;32;116014;p_100_250;50.722327;1.597169;
odf_200067205;200067205;CA DU COTENTIN;CA;8 Rue des Vindits 50130 Cherbourg-en-Cotentin;https://www.opendata-manche.fr/web/guest/donnees;27;;2;;ptf;d_26_50;MGDIS Open Data;Opendata Manche;Administratif-Transport-Citoyenneté;;50;Manche;NOR;28;180794;p_100_250;49.634352;-1.654065;
odf_200044618;200044618;CA DU DOUAISIS;CA;746 Rue Jean Perrin 59500 Douai;;;https://www.data.gouv.fr/fr/organizations/59ce086088ee3865cbc4328f/;24;59ce086088ee3865cbc4328f;datagouv;d_1_5;DataGouv;DataGouv;Transport-Environnement;;59;Nord;HDF;32;149248;p_100_250;50.397151;3.101128;
odf_242500361;242500361;CA DU GRAND BESANCON;CA;4 Rue Gabriel Plancon 25000 Besançon;https://data.grandbesancon.fr;56;https://www.data.gouv.fr/fr/organizations/59196e9088ee38471c78dac6;23;59196e9088ee38471c78dac6;ptf+datagouv;d_51_100;CKAN-CKAN;Data BFC-IDéO - Portail Opendata BFC;Administratif-Citoyenneté-Environnement-Transport;;25;Doubs;BFC;27;193187;p_100_250;47.2347;6.01537;
odf_200023737;200023737;CA DU GRAND CAHORS;CA;72 Rue du President Wilson 46000 Cahors;;;https://www.data.gouv.fr/fr/organizations/589d6e22c751df0ff0ae0a65;1;589d6e22c751df0ff0ae0a65;datagouv;d_11_25;DataGouv;DataGouv;Transport-Environnement-Education;;46;Lot;OCC;76;40775;p_25_50;44.446218;1.439927;
odf_248900334;248900334;CA DU GRAND SENONAIS;CA;21 Boulevard du 14 Juillet 89100 Sens;https://trouver.ternum-bfc.fr/organization/communaute-dagglomeration-du-grand-senonais;3;https://www.data.gouv.fr/fr/datasets/5c2f22d6634f416a515cb152/;14;5c2f22d6634f416a515cb152;ptf+datagouv;d_1_5;DataGouv;DataGouv;Urbanisme;;89;Yonne;BFC;27;58729;p_50_100;48.195291;3.2851;
odf_242010056;242010056;CA DU PAYS AJACCIEN;CA;Rue Antoine Sollacaro 20090 Ajaccio;https://opendata.ca-ajaccien.corsica/ouverture-des-donnees-publiques-du-pays-ajaccien/donnees/;109;https://www.data.gouv.fr/fr/organizations/5540eb53c751df7dafe96a3b;2;5540eb53c751df7dafe96a3b;ptf+datagouv;d_101_250;OpenDataSoft;Data Corsica;Transport-Sports-Equipements-Urbanisme;;2A;Corse-du-Sud;COR;94;85103;p_50_100;41.929866;8.738556;
odf_200039857;200039857;CA DU PAYS DE GRASSE;CA;57 Avenue Pierre Sémard 06130 Grasse;https://opendata.sictiam.fr/fr/organization/ca-du-pays-de-grasse;1;https://www.data.gouv.fr/fr/organizations/5afae4b088ee3854d32fa3d9/;6;5afae4b088ee3854d32fa3d9;ptf+datagouv;d_1_5;OpenDataSoft;Data Sicoval;Equipements-Transport;;6;Alpes-Maritimes;PAC;93;101795;p_100_250;43.656709;6.9307;
odf_243500782;243500782;CA DU PAYS DE SAINT MALO;CA;6 La Ville Jegu 35260 Cancale;https://data.stmalo-agglomeration.fr/explore/?refine.publisher=SAINT-MALO+AGGLOMERATION;25;https://www.data.gouv.fr/fr/organizations/5492db21c751df7a9c04805a;;5492db21c751df7a9c04805a;ptf+datagouv;d_26_50;OpenDataSoft;Data Saint Malo Agglomération;Administratif-Equipements-Environnement;SAINT-MALO AGGLOMERATION;35;Ille-et-Vilaine;BRE;53;84407;p_50_100;48.67433;-1.867128;
odf_200073419;200073419;CA DU PUY EN VELAY;CA;Place de la Liberation 43000 Le Puy-en-Velay;https://opendata.agglo-lepuyenvelay.fr/geonetwork/srv/fre/catalog.search#/search?facet.q=type%2Fdataset%26sourceCatalog%2F1c86ee62-a93b-4bf6-8f19-9e162a587920&resultType=details&sortBy=relevance&fast=index&_content_type=json&from=1&to=20;103;;;;ptf;d_101_250;Spécifique;Opendata Auvergne Rhône Alpes;Urbanisme-Equipements;;43;Haute-Loire;ARA;84;8915;p_5_10;45.047411;3.876854;
odf_200071892;200071892;CA DU SAINT QUENTINOIS;CA;58 Boulevard Victor Hugo 02100 Saint-Quentin;http://opendata.agglo-saintquentinois.fr/datasets;523;;2;;ptf;d_501_5000;ArcGIS;Opendata Saint Quentin;Administratif-Citoyenneté-Education-Environnement-Transport-Equipements;;2;Aisne;HDF;32;81489;p_50_100;49.841761;3.284852;
odf_200034700;200034700;CA DURANCE LUBERON VERDON;CA;16 Place de l’Hôtel de Ville 04100 Manosque;https://trouver.datasud.fr/organization/communaute-dagglomeration-durance-luberon-verdon;6;https://www.data.gouv.fr/es/organizations/5911d508c751df168e15a89f/;;5911d508c751df168e15a89f;ptf+datagouv;d_6_10;CKAN;Data Sud;Equipements-Transport;;4;Alpes-de-Haute-Provence;PAC;93;61520;p_50_100;43.83373;5.782661;
odf_200071454;200071454;CA EVREUX PORTES DE NORMANDIE;CA;9 Rue Voltaire 27000 Évreux;https://epn-agglo.opendatasoft.com/explore/?sort=modified&refine.publisher=Evreux+Portes+de+Normandie+;1;;;;ptf;d_1_5;Spécifique;Opendata Auvergne Rhône Alpes;Télécom;Evreux Portes de Normandie;27;Eure;NOR;28;111800;p_100_250;49.009167;1.157405;
odf_200069821;200069821;CA FECAMP CAUX LITTORAL AGGLOMERATION;CA;825 Route de Valmont 76400 Fécamp;https://data.estuairedelaseine.fr/;6;;8;;ptf;d_6_10;Spécifique;Data Estuaire de la Seine;Administratif-Citoyenneté-Transport-Urbanisme-Environnement-Equipements;;76;Seine-Maritime;NOR;28;39521;p_25_50;49.75109;0.414625;
odf_200066124;200066124;CA GAILLAC GRAULHET;CA;81600 TECOU;;;https://www.data.gouv.fr/fr/organizations/5ee28a82a4726888290c20c4/;;5ee28a82a4726888290c20c4;datagouv;d_6_10;DataGouv;DataGouv;Urbanisme;;81;Tarn;OCC;76;73228;p_50_100;43.843058;1.935546;
odf_200067825;200067825;CA GAP TALLARD DURANCE;CA;3 Rue du Colonel Roux 05000 Gap;https://trouver.datasud.fr/organization/communaute-dagglomeration-de-gap-tallard-durance;1;;17;;ptf;d_1_5;CKAN;Data Sud;Environnement;;5;Hautes-Alpes;PAC;93;50025;p_50_100;44.558774;6.079671;
odf_248400251;248400251;CA GRAND AVIGNON;CA;320 Chemin des Meinajariés 84000 Avignon;;;https://www.data.gouv.fr/fr/organizations/5a7ad2b1c751df27e7d1190c/;46;5a7ad2b1c751df27e7d1190c;datagouv;d_11_25;DataGouv;DataGouv;Urbanisme-Transport-Culture-Environnement;;84;Vaucluse;PAC;93;193712;p_100_250;43.909806;4.887533;
odf_200069052;200069052;CA GRAND BELFORT;CA;Place d’Armes 90000 Belfort;https://belfort-cab.opendata.arcgis.com/search;40;https://www.data.gouv.fr/fr/organizations/5afd7ce888ee387d9f4e136f/;;5afd7ce888ee387d9f4e136f;ptf+datagouv;d_51_100;CKAN-CKAN;Data BFC-IDéO - Portail Opendata BFC;Equipements-Transport-Education;;90;Territoire-de-Belfort;BFC;27;105390;p_100_250;47.638459;6.863044;
odf_247100589;247100589;CA GRAND CHALON;CA;23 Avenue Georges Pompidou 71100 Chalon-sur-Saône;https://www.databfc.fr/bfc/portail;3;;35;;ptf;d_1_5;CKAN-CKAN;Data BFC-IDéO - Portail Opendata BFC;Administratif-Environnement-Equipements-Citoyenneté;;71;Saône-et-Loire;BFC;27;113901;p_100_250;46.779863;4.845234;
odf_200069110;200069110;CA GRAND CHAMBERY AGGLOMERATION;CA;106 Allée des Blachères 73000 Chambéry;https://donnees.grandchambery.fr/explore/?refine.publisher=Grand+Chamb%C3%A9ry;20;https://www.data.gouv.fr/fr/organizations/5ba24dc9634f41611dc498cc/;1;5ba24dc9634f41611dc498cc;ptf+datagouv;d_51_100;OpenDataSoft;Data Grand Chambéry;Administratif-Equipements-Transport;Grand Chambéry;73;Savoie;ARA;84;136805;p_100_250;45.598986;5.89644;
odf_200010650;200010650;CA GRAND DOLE;CA;Place de l’Europe 39100 Dole;;;https://www.data.gouv.fr/fr/organizations/5e2086a38b4c41778e8f75bc/;1;5e2086a38b4c41778e8f75bc;datagouv;d_1_5;DataGouv;DataGouv;Transport;;39;Jura;BFC;27;54425;p_50_100;47.09053;5.489046;
odf_200034825;200034825;CA GRAND GUERET;CA;9 Avenue Charles de Gaulle 23000 Guéret;;;https://www.data.gouv.fr/fr/organizations/5cc0c79b8b4c414c13d12d0a/;14;5cc0c79b8b4c414c13d12d0a;datagouv;d_1_5;DataGouv;DataGouv;Transport;;23;Creuse;NAQ;75;29213;p_25_50;46.170889;1.874464;
odf_200059228;200059228;CA GRAND PARIS SUD SEINE ESSONNE SENART;CA;505 Place des Champs Elysées (Courcouronnes) 91080 Évry-Courcouronnes;https://data.grandparissud.fr/explore/?refine.publisher=Grand+Paris+Sud;11;https://www.data.gouv.fr/fr/organizations/59133d14c751df2fa69bfb86/;49;59133d14c751df2fa69bfb86;ptf+datagouv;d_11_25;OpenDataSoft;Data Grand Paris Sud;Administratif-Education-Culture-Social-Equipements;Grand Paris Sud + Numérique @ Grand Paris Sud + sig@grand paris sud*;91;Essonne;IDF;11;310758;p_250_500;48.62317;2.423256;
odf_247600596;247600596;CA HAVRAISE;CA;19 Rue Georges Braque 76600 Le Havre;https://data.agglo-lehavre.fr;157;https://www.data.gouv.fr/fr/organizations/59bfa079c751df6dad38dc0d/;3;59bfa079c751df6dad38dc0d;ptf+datagouv;d_101_250;Spécifique;Data Le Havre Seine Métropole;Administratif-Transport-Citoyenneté-Environnement-Urbanisme-Culture-Education;;76;Seine-Maritime;NOR;28;236133;p_100_250;49.495033;0.104816;
odf_243400819;243400819;CA HERAULT MEDITERRANEE;CA;22 AV DU TROISIEME MILLENAIRE 34630 SAINT-THIBERY;;;https://www.data.gouv.fr/fr/organizations/5bac83c9634f4106bc21d00b/;1;5bac83c9634f4106bc21d00b;datagouv;d_1_5;DataGouv;DataGouv;Transport;;34;Hérault;OCC;76;77450;p_50_100;43.391214;3.419152;
odf_248500589;248500589;CA LA ROCHE SUR YON;CA;Place du Théâtre 85000 La Roche-sur-Yon;;;https://www.data.gouv.fr/fr/organizations/5f106ce48370b7ac5ed923f0/;2;5f106ce48370b7ac5ed923f0;datagouv;d_1_5;DataGouv;DataGouv;Transport;;85;Vendée;PDL;52;95416;p_50_100;46.671005;-1.429652;
odf_241700434;241700434;CA LA ROCHELLE;CA;6 Rue Saint-Michel 17000 La Rochelle;https://opendata2.agglo-larochelle.fr/portail?facet.field=[%22organization%22 %22tags%22 %22theme%22 %22features%22]&rows=10&start=0&fq=organization:(communaute_dagglomeration_de_la_rochelle);28;https://www.data.gouv.fr/fr/organizations/5ae6b61b88ee382152cd61a9/;9;5ae6b61b88ee382152cd61a9;ptf+datagouv;d_26_50;DATA4CITIZEN;Opendata CA La Rochelle;Administratif-Citoyenneté-Environnement-Transport-Urbanisme-Equipements;;17;Charente-Maritime;NAQ;75;168692;p_100_250;46.159783;-1.149986;
odf_200065928;200065928;CA LANNION TREGOR COMMUNAUTE;CA;1 Rue Gaspard Monge 22300 Lannion;http://datarmor.cotesdarmor.fr/web/guest/donnees;8;https://www.data.gouv.fr/fr/organizations/595254f888ee384d9d265130;34;595254f888ee384d9d265130;ptf+datagouv;d_11_25;MGDIS Open Data;Dat'Armor;Administratif-Citoyenneté-Equipements-Culture-Transport-Tourisme-Education-Environnement-Social;;22;Côtes d'Armor;BRE;53;99903;p_50_100;48.756354;-3.449292;
odf_200069532;200069532;CA LISIEUX NORMANDIE;CA;6 Rue d’Alençon 14100 Lisieux;https://data.estuairedelaseine.fr;19;https://www.data.gouv.fr/fr/organizations/5ddcf096634f411f920b844d/;67;5ddcf096634f411f920b844d;ptf;d_51_100;Spécifique;Data Estuaire de la Seine;Administratif-Environnement-Transport-Urbanisme;;14;Calvados;NOR;28;74829;p_50_100;49.142701;0.226954;
odf_200065886;200065886;CA LOIRE FOREZ AGGLOMERATION;CA;17 Boulevard de la Préfecture 42600 Montbrison;;;https://www.data.gouv.fr/fr/organizations/5bed6ebf8b4c41329a5f7d1f/;109;5bed6ebf8b4c41329a5f7d1f;datagouv;d_51_100;DataGouv;DataGouv;Transport-Equipements-Urbanisme;;42;Loire;ARA;84;108187;p_100_250;45.608644;4.061736;
odf_200042174;200042174;CA LORIENT AGGLOMERATION;CA;Esplanade du Péristyle 56100 Lorient;;;https://www.data.gouv.fr/fr/organizations/55b8c85288ee3827203ca288;1;55b8c85288ee3827203ca288;datagouv;d_101_250;DataGouv;DataGouv;Administratif-Urbanisme-Transport-Citoyenneté-Education-Equipements-Environnement-Social-Tourisme-Culture;;56;Morbihan;BRE;53;202194;p_100_250;47.743926;-3.351726;
odf_200070308;200070308;CA MACONNAIS BEAUJOLAIS;CA;67 Esplanade du Breuil 71000 Mâcon;;;https://www.data.gouv.fr/fr/organizations/5c0f89d4634f41198d4a53e8/;;5c0f89d4634f41198d4a53e8;datagouv;d_1_5;DataGouv;DataGouv;Transport;;71;Saône-et-Loire;BFC;27;76280;p_50_100;46.314472;4.837414;
odf_200069425;200069425;CA MONT SAINT MICHEL NORMANDIE;CA;1 Rue du Général Ruel 50300 Avranches;https://www.opendata-manche.fr/web/guest/donnees;11;;4;;ptf;d_11_25;MGDIS Open Data;Opendata Manche;Administratif-Equipements;;50;Manche;NOR;28;87984;p_50_100;48.685338;-1.351699;
odf_244500203;244500203;CA MONTARGOISE ET RIVE DU LOING;CA;1 Rue du Faubourg de la Chaussee 45200 Montargis;;;https://www.data.gouv.fr/fr/organizations/agglomeration-montargoise-et-rives-du-loing/;2;5bfd11e4634f4170344a961b;datagouv;d_1_5;DataGouv;DataGouv;Equipements-Administratif-Transport;;45;Loiret;CVL;24;62240;p_50_100;47.997743;2.736235;
odf_240300608;240300608;CA MONTLUÇON COMMUNAUTE;CA;1 Rue des Conches 03100 Montluçon;;;https://www.data.gouv.fr/fr/organizations/5ca763cd634f417b395627df/;;5ca763cd634f417b395627df;datagouv;d_1_5;DataGouv;DataGouv;Transport;;3;Allier;ARA;84;62414;p_50_100;46.343701;2.606101;
odf_200071140;200071140;CA MOULINS COMMUNAUTE;CA;8 Pl du Mal de Lattre de Tassigny 03000 Moulins;http://opendata.auvergnerhonealpes.eu/7-les-donnees.htm?facet.provider[]=Communaut%C3%A9%20de%20Communes%20du%20Pays%20de%20Chevagnes%20en%20Sologne&from=0;8;;125;;ptf;d_6_10;Spécifique;Opendata Auvergne Rhône Alpes;Administratif-Tourisme-Education-Enfance-Equipements;;3;Allier;ARA;84;65451;p_50_100;46.561833;3.330486;
odf_200066009;200066009;CA MULHOUSE ALSACE AGGLOMERATION;CA;2 Rue Pierre et Marie Curie 68200 Mulhouse;https://data.mulhouse-alsace.fr/explore/?refine.publisher=Mulhouse+Alsace+Agglom%C3%A9ration;35;https://www.data.gouv.fr/fr/organizations/5be06c41634f4158c956b300/;11;5be06c41634f4158c956b300;ptf+datagouv;d_101_250;OpenDataSoft;Data Mulhouse Alsace;Transport-Equipements-Environnement-Administratif-Citoyenneté-Culture-Education-Social-Urbanisme;Mulhouse Alsace Agglomération;68;Haut-Rhin;GES;44;272985;p_250_500;47.749928;7.33623;
odf_249400078;249400078;CA PARIS - VALLEE DE LA MARNE;CA;92 Avenue du Général de Gaulle 94170 Le Perreux-sur-Marne;;;https://www.data.gouv.fr/fr/organizations/communaute-dagglomeration-paris-vallee-de-la-marne/;;;datagouv;d_11_25;DataGouv;DataGouv;Equipements;;94;Val-de-Marne;IDF;11;227943;p_100_250;48.839622;2.508071;
odf_200056232;200056232;CA PARIS SACLAY;CA;Rue Jean Rostand 91400 Orsay;https://opendata.paris-saclay.com/explore/?refine.publisher=Communaut%C3%A9+d%27agglom%C3%A9ration+Paris-Saclay;61;;;;ptf;d_51_100;OpenDataSoft;Opendata Paris Saclay;Administratif-Citoyenneté-Economie-Transport-Environnement-Equipements;Communauté d'agglomération Paris-Saclay;91;Essonne;IDF;11;318308;p_250_500;48.709439;2.175463;
odf_200067254;200067254;CA PAU BEARN PYRENEES;CA;2bis Place Royale 64000 Pau;https://opendata.agglo-pau.fr/catal2.html;37;;2;;ptf;d_26_50;Spécifique;Opendata Agglo Pau;Administratif-Citoyenneté-Equipements-Environnement-Social-Economie-Urbanisme;;64;Pyrénées-Atlantiques;NAQ;75;161891;p_100_250;43.293766;-0.370416;
odf_240100750;240100750;CA PAYS DE GEX;CA;135 Rue de Geneve 01170 Gex;;;https://www.data.gouv.fr/fr/organizations/5f199bd29460ebdaddd95b99/;1;5f199bd29460ebdaddd95b99;datagouv;d_1_5;DataGouv;DataGouv;Transport;;1;Ain;ARA;84;93027;p_50_100;46.330914;6.05819;
odf_200069037;200069037;CA PAYS DE SAINT OMER;CA;2 Rue Albert Camus 62219 Longuenesse;;;https://www.data.gouv.fr/fr/organizations/5e848e61eed811f6b7cdc220/;1;5e848e61eed811f6b7cdc220;datagouv;d_1_5;DataGouv;DataGouv;Transport;;62;Pas-de-Calais;HDF;32;72565;p_50_100;50.738635;2.275445;
odf_200067791;200067791;CA PAYS FOIX VARILHES;CA;1a Avenue du Général de Gaulle 09000 Foix;;;https://www.data.gouv.fr/fr/organizations/5bd9cd77634f413406c077fd/;237;5bd9cd77634f413406c077fd;datagouv;d_1_5;DataGouv;DataGouv;Transport;;9;Ariège;OCC;76;31840;p_25_50;42.960363;1.609389;
odf_200056380;200056380;CA PLAINE VALLEE;CA;Avenue Foch 95160 Montmorency;;;https://www.data.gouv.fr/fr/organizations/communaute-dagglomeration-plaine-vallee/;2;;datagouv;d_101_250;DataGouv;DataGouv;Administratif-Culture-Equipements-Environnement-Transport-Urbanisme;;95;Val-D'Oise;IDF;11;182585;p_100_250;48.989398;2.319267;
odf_243800604;243800604;CA PORTE DE L'ISERE;CA;17 Avenue du Bourg 38080 L'Isle-d'Abeau;;;https://www.data.gouv.fr/fr/organizations/5c516739634f4121096513af/;2;5c516739634f4121096513af;datagouv;d_1_5;DataGouv;DataGouv;Transport;;38;Isère;ARA;84;104941;p_100_250;45.620197;5.22968;
odf_200071413;200071413;CA PRIVAS CENTRE ARDECHE;CA;1 Rue Serre du Serret 07000 Privas;;;https://www.data.gouv.fr/fr/organizations/5cadb863634f41514da8fa0c/;;5cadb863634f41514da8fa0c;datagouv;d_1_5;DataGouv;DataGouv;Transport;;7;Ardèche;ARA;84;43552;p_25_50;44.734372;4.600368;
odf_200067437;200067437;CA PROVENCE ALPES AGGLOMERATION;CA;4 Rue Klein 04000 Digne-les-Bains;https://trouver.datasud.fr/organization/provence-alpes-agglomeration;3;;7;;ptf;d_1_5;CKAN;Data Sud;Equipements;;4;Alpes-de-Haute-Provence;PAC;93;47270;p_25_50;44.089608;6.233043;
odf_200068120;200068120;CA QUIMPER BRETAGNE OCCIDENTALE;CA;44 Place Saint Corentin 29000 Quimper;;;https://www.data.gouv.fr/fr/organizations/5a82e90b88ee387c99662abb/;8;5a82e90b88ee387c99662abb;datagouv;d_6_10;DataGouv;DataGouv;Equipements;;29;Finistère;BRE;53;100412;p_100_250;47.996194;-4.102035;
odf_243500741;243500741;CA REDON AGGLOMERATION;CA;3 Rue Charles Sillard 35600 Redon;;;https://www.data.gouv.fr/fr/organizations/59679365c751df12bcc44bba;1;59679365c751df12bcc44bba;datagouv;d_6_10;DataGouv;DataGouv;Administratif-Environnement-Citoyenneté-Social;;35;Ille-et-Vilaine;BRE;53;66091;p_50_100;47.652999;-2.094286;
odf_200067965;200067965;CA REGION DE COMPIEGNE ET DE LA BASSE AUTOMNE;CA;Place de l’Hôtel de Ville 60200 Compiègne;;;https://www.data.gouv.fr/fr/organizations/5e2af3758b4c41693ce44aa3/;2;5e2af3758b4c41693ce44aa3;datagouv;d_1_5;DataGouv;DataGouv;Equipements;;60;Oise;HDF;32;82180;p_50_100;49.417732;2.825644;
odf_200035731;200035731;CA ROANNAIS AGGLOMERATION;CA;63 Rue Jean Jaurès 42300 Roanne;;;https://www.data.gouv.fr/fr/organizations/5ae0518e88ee3874bffdf173/;2;5ae0518e88ee3874bffdf173;datagouv;d_1_5;DataGouv;DataGouv;Social-Sports;;42;Loire;ARA;84;100458;p_100_250;46.03576;4.071037;
odf_241200187;241200187;CA RODEZ AGGLOMERATION;CA;17 Rue Aristide Briand 12000 Rodez;;;https://www.data.gouv.fr/fr/organizations/5bf2d970634f414ab5643cee/;8;5bf2d970634f414ab5643cee;datagouv;d_1_5;DataGouv;DataGouv;Transport;;12;Aveyron;OCC;76;55345;p_50_100;44.350425;2.577115;
odf_241700640;241700640;CA ROYAN ATLANTIQUE;CA;107 Avenue de Rochefort 17200 Royan;https://data.agglo-royan.fr/dataset;8;https://www.data.gouv.fr/fr/organizations/56ab6daa88ee3859ece82d6e;1;56ab6daa88ee3859ece82d6e;ptf+datagouv;d_11_25;CKAN;Data Agglo Royan;Administratif-Environnement-Transport;;17;Charente-Maritime;NAQ;75;82088;p_50_100;45.638664;-1.025321;
odf_200069409;200069409;CA SAINT BRIEUC ARMOR AGGLOMERATION;CA;5 Rue du 71ème Régiment d’Infanterie 22000 Saint-Brieuc;http://datarmor.cotesdarmor.fr/web/guest/donnees;2;https://www.data.gouv.fr/fr/organizations/5acb2f2088ee3813a476714d/;31;5acb2f2088ee3813a476714d;ptf+datagouv;d_1_5;MGDIS Open Data;Dat'Armor;Administratif-Citoyenneté-Culture-Environnement-Equipements-Transport-Urbanisme;;22;Côtes d'Armor;BRE;53;151517;p_100_250;48.511417;-2.763536;
odf_200066058;200066058;CA SAINT LOUIS AGGLOMERATION;CA;Rue de l’Horticulture 68300 Saint-Louis;;;https://www.data.gouv.fr/fr/organizations/5a7c19f5c751df3e55b0c321;1;5a7c19f5c751df3e55b0c321;datagouv;d_26_50;DataGouv;DataGouv;Administratif-Citoyenneté-Transport-Environnement-Equipements-Culture-Education;;68;Haut-Rhin;GES;44;75800;p_50_100;47.580364;7.548021;
odf_200066355;200066355;CA SETE AGGLOPOLE MEDITERRANEE;CA;4 Avenue d’Aigues 34110 Frontignan;http://opendata.agglopole.fr;25;https://www.data.gouv.fr/fr/organizations/5d1cacb18b4c416d9490f4a2/;23;5d1cacb18b4c416d9490f4a2;ptf+datagouv;d_26_50;Spécifique;Opendata Sète Agglopole;Transport-Equipements;;34;Hérault;OCC;76;124469;p_100_250;43.437309;3.70919;
odf_243100633;243100633;CA SICOVAL;CA;110 Rue Marco Polo 31670 Labège;https://data.sicoval.fr/explore/?refine.publisher=Sicoval+-+communaut%C3%A9+d%27agglom%C3%A9ration+du+Sud-Est+toulousain;48;https://www.data.gouv.fr/fr/organizations/586b79b3c751df75b32b7154;4;586b79b3c751df75b32b7154;ptf+datagouv;d_51_100;OpenDataSoft;Data Sicoval;Administratif-Citoyenneté-Economie-Education-Environnement-Transport-Urbanisme-Equipements;Sicoval - communauté d'agglomération du Sud-Est toulousain + Géoportail du Sicoval*;31;Haute-Garonne;OCC;76;76777;p_50_100;43.544117;1.505566;
odf_240600585;240600585;CA SOPHIA ANTIPOLIS;CA;Cours Masséna 06600 Antibes;https://trouver.datasud.fr/organization/communaute-dagglomeration-sophia-antipolis;3;https://www.data.gouv.fr/fr/organizations/5a71cf5fc751df19bcdb5d11/;1;5a71cf5fc751df19bcdb5d11;ptf+datagouv;d_6_10;CKAN;Data Sud;Transport;;6;Alpes-Maritimes;PAC;93;175868;p_100_250;43.580746;7.127431;
odf_200072072;200072072;CA TERRITOIRES VENDOMOIS;CA;Avenue Ronsard 41100 Vendôme;;;https://www.data.gouv.fr/fr/organizations/5c067f178b4c410e40e88183/;12;5c067f178b4c410e40e88183;datagouv;d_1_5;DataGouv;DataGouv;Transport;;41;Loir-et-Cher;CVL;24;57038;p_50_100;47.798233;1.046077;
odf_245701222;245701222;CA VAL DE FENSCH;CA;10 Rue de Wendel 57700 Hayange;;;https://www.data.gouv.fr/fr/organizations/5d3193bb634f4103f485c9f9/;6;5d3193bb634f4103f485c9f9;datagouv;d_11_25;DataGouv;DataGouv;Administratif-Citoyenneté-Education-Environnement-Equipements-Transport;;57;Moselle;GES;44;70268;p_50_100;49.329156;6.065871;
odf_200035319;200035319;CA VAR ESTEREL MEDITERRANEE;CA;624 Chemin Aurélien 83700 Saint-Raphaël;https://trouver.datasud.fr/organization/communaute-dagglomeration-var-esterel-mediterranee;5;https://www.data.gouv.fr/fr/organizations/5f57789537198fbe468ac537/;54;5f57789537198fbe468ac537;ptf;d_11_25;CKAN;Data Sud;Transport;;83;Var;PAC;93;111657;p_100_250;43.436856;6.772314;
odf_248400053;248400053;CA VENTOUX COMTAT VENAISSIN;CA;1171 Avenue du Mont-Ventoux 84200 Carpentras;https://trouver.datasud.fr/organization/communaute-dagglomeration-ventoux-comtat-venaissin;54;https://www.data.gouv.fr/fr/organizations/5c62d28e8b4c414299ae8286/;39;5c62d28e8b4c414299ae8286;ptf+datagouv;d_101_250;CKAN;Data Sud;Culture-Economie-Transport-Equipements-Urbanisme-Administratif-Citoyenneté-Education;;84;Vaucluse;PAC;93;69203;p_50_100;44.059319;5.067539;
odf_247800584;247800584;CA VERSAILLES GRAND PARC;CA;6 Avenue de Paris 78000 Versailles;http://www-cavgp.opendata.arcgis.com/datasets;39;https://www.data.gouv.fr/fr/organizations/58c5a537c751df2fb0fde3c9/;1;58c5a537c751df2fb0fde3c9;ptf+datagouv;d_51_100;OpenDataSoft;Data Carene;Administratif-Citoyenneté-Culture-Education-Environnement-Equipements-Transport-Urbanisme;;78;Yvelines;IDF;11;264484;p_250_500;48.801528;2.130958;
odf_200077014;200077014;CA VIENNE CONDRIEU;CA;30 Avenue Général Leclerc 38200 Vienne;;;https://www.data.gouv.fr/fr/organizations/5f6af29ff7ae06ea64a234d1/;;5f6af29ff7ae06ea64a234d1;datagouv;d_1_5;DataGouv;DataGouv;Transport;;38;Isère;ARA;84;89522;p_50_100;45.513213;4.865758;
odf_219400165;219400165;CACHAN;COM;Square de la Libération (Parc) Saint-Jean-d'Angély;https://cachan.opendatasoft.com/explore/?sort=explore.popularity_score&refine.publisher=Ville+de+Cachan;30;;5;;ptf;d_26_50;OpenDataSoft;Opendata Cachan;Administratif-Santé-Equipements-Citoyenneté-Environnement-Culture-Education-Social;;94;Val-de-Marne;IDF;11;31069;p_25_50;45.9415483;-0.5187952;
odf_211401187;211401187;CAEN;COM;Esplanade Jean Marie Louvel 14000 Caen;;;https://www.data.gouv.fr/fr/organizations/5d9b54b3634f4164bb0bec9d/;23;5d9b54b3634f4164bb0bec9d;datagouv;d_1_5;DataGouv;DataGouv;Administratif-Urbanisme-Citoyenneté;;14;Calvados;NOR;28;105354;p_100_250;49.181029;-0.371116;
odf_221401185;221401185;CALVADOS;DEP;12 Rue Saint-Laurent 14000 Caen;;;https://www.data.gouv.fr/fr/organizations/departement-du-calvados/;;5bd96f848b4c415ecb7a9a8b;datagouv;d_11_25;DataGouv;DataGouv;Administratif-Citoyenneté-Urbanisme-Education-Culture-Environnement;;14;Calvados;NOR;28;694002;p_500_1000;49.18134;-0.366253;
odf_215600305;215600305;CAMOEL;COM;Rue de la Masse 56130 Camoël;https://capatlantique-loireatlantique.opendatasoft.com/explore/?refine.publisher=Camoël;2;;;;ptf;d_1_5;OpenDataSoft;Data Cap Atlantique;Administratif-Citoyenneté;Camoël;56;Morbihan;BRE;53;988;na;47.481987;-2.392134;
odf_214900540;214900540;CANDE;COM;4 Rue de l’Hôtel de Ville 49440 Candé;https://www.opendata49.fr/index.php?id=38;3;;5;;ptf;d_1_5;TYPO3 In Cite;Opendata Maine et Loire 49;Administratif-Equipements-Environnement-Citoyenneté-Social-Transport;;49;Maine-et-Loire;PDL;52;2937;p_1_5;47.556132;-1.042685;
odf_221500010;221500010;CANTAL;DEP;28 Avenue Gambetta 15000 Aurillac;;;https://www.data.gouv.fr/fr/organizations/534fff69a3a7292c64a77d94;2;534fff69a3a7292c64a77d94;datagouv;d_1_5;DataGouv;DataGouv;Santé-Education-Social-Transport-Administratif;;15;Cantal;ARA;84;143627;p_100_250;44.927126;2.445976;
odf_216401661;216401661;CARO;COM;64220 CARO;;;https://www.data.gouv.fr/fr/organizations/5e6622e5634f417ab82d46ec/;2;5e6622e5634f417ab82d46ec;datagouv;d_1_5;DataGouv;DataGouv;Equipements;;64;Pyrénées-Atlantiques;NAQ;75;64166;p_50_100;43.1491762;-1.218517;
odf_218400315;218400315;CARPENTRAS;COM;Place de l’Hotel de Ville 84200 Carpentras;;;https://www.data.gouv.fr/fr/organizations/ville-de-carpentras/;;;datagouv;d_1_5;DataGouv;DataGouv;Equipements;;84;Vaucluse;PAC;93;28798;p_25_50;44.055458;5.048667;
odf_217801232;217801232;CARRIERES-SOUS-POISSY;COM;1 Place Saint Blaise 78955 Carrières-sous-Poissy;https://gpseo.opendatasoft.com/explore/?disjunctive.theme&sort=explore.popularity_score&refine.publisher=Commune+de+Carrières-sous-Poissy;6;;;;ptf;d_6_10;OpenDataSoft;Opendata Grand Paris Seine & Oise (GPSEO);Administratif-Santé-Transport-Citoyenneté-Urbanisme;;78;Yvelines;IDF;11;16248;p_10_25;48.943928;2.035202;
odf_213101132;213101132;CASTANET TOLOSAN;COM;Avenue de Toulouse 31320 Castanet-Tolosan;https://data.laregion.fr/explore/?disjunctive.publisher&sort=modified&refine.publisher=Commune+de+Castanet-Tolosan;1;;;;ptf;d_1_5;OpenDataSoft;Data Occitanie;Citoyenneté;Castanet-Tolosan;31;Haute-Garonne;OCC;76;12833;p_10_25;43.520425;1.496095;
odf_213101181;213101181;CASTELNAU D'ESTRETEFONDS;COM;Parvis des Citoyens 31620 Castelnau-d'Estrétefonds;https://data.laregion.fr/explore/?disjunctive.publisher&sort=modified&refine.publisher=Commune+de+Castelnau-d%27Estr%C3%A9tefonds;1;;;;ptf;d_1_5;OpenDataSoft;Data Occitanie;Citoyenneté;Commune de Castelnau-d'Estrétefonds;31;Haute-Garonne;OCC;76;6334;p_5_10;43.783744;1.357543;
odf_213400575;213400575;CASTELNAU LE LEZ;COM;Rue de la Crouzette 34170 Castelnau-le-Lez;http://data.montpellier3m.fr/datasets/commune/castelnau-le-lez;32;;12;;ptf;d_26_50;CKAN;Data Montpellier3M;Urbanisme-Economie-Environnement-Transport-Equipements;;34;Hérault;OCC;76;19886;p_10_25;43.632442;3.898383;
odf_211100763;211100763;CASTELNAUDARY;COM;Cours de la République 11400 Castelnaudary;;;https://www.data.gouv.fr/fr/organizations/58d2805b88ee3830ab40dd02;;58d2805b88ee3830ab40dd02;datagouv;d_11_25;DataGouv;DataGouv;Administratif-Equipements-Environnement-Social-Santé-Transport;;11;Aude;OCC;76;11563;p_10_25;43.317334;1.952579;
odf_213400583;213400583;CASTRIES;COM;4 Avenue de la Promenade 34160 Castries;http://data.montpellier3m.fr/datasets/commune/castries;26;;;;ptf;d_26_50;CKAN;Data Montpellier3M;Administratif-Environnement-Equipements-Social;;34;Hérault;OCC;76;6162;p_5_10;43.677568;3.985313;
odf_213101355;213101355;CAZERES SUR GARONNE;COM;Place de l’Hotel de Ville 31220 Cazères;https://data.laregion.fr/explore/?disjunctive.publisher&sort=modified&refine.publisher=Commune+de+Caz%C3%A8res-sur-Garonne;2;;5;;ptf;d_1_5;OpenDataSoft;Data Occitanie;Administratif-Citoyenneté;Commune de Cazères-sur-Garonne;31;Haute-Garonne;OCC;76;4864;p_1_5;43.205898;1.086493;
odf_243500659;243500659;CC  CHATEAUGIRON COMMUNAUTE;CC;16 Rue de Rennes 35410 Châteaugiron;;;https://www.data.gouv.fr/fr/organizations/communaute-de-communes-du-pays-de-chateaugiron/;;;datagouv;d_1_5;DataGouv;DataGouv;Equipements;;35;Ille-et-Vilaine;BRE;53;26507;p_25_50;48.054068;-1.512387;
odf_246500573;246500573;CC AURE ET LOURON;CC;Chemin de Sartol 65240 Arreau;https://opendata.ha-py.fr/pages/vallees-aure-louron/;1;;4;;ptf;d_1_5;OpenDataSoft;Opendata Hautes Pyrénées;Administratif;;65;Hautes-Pyrénées;OCC;76;12336;p_10_25;42.903952;0.354555;
odf_244900882;244900882;CC BAUGEOIS VALLEE;CC;15 Avenue Legoulz de la Boulaie 49150 Baugé-en-Anjou;;;https://www.data.gouv.fr/fr/organizations/communaute-de-communes-vallee-des-baux-alpilles/;2;5c06560f634f417ac74c46cc;datagouv;d_1_5;DataGouv;DataGouv;Administratif-Citoyenneté-Urbanisme;;49;Maine-et-Loire;PDL;52;35372;p_25_50;47.537452;-0.098592;
odf_200066371;200066371;CC CAUSSES ET VALLEE DE LA DORDOGNE;CC;Route de Bramefond (Chemin) Ucel;;;https://www.data.gouv.fr/fr/organizations/5bb5cf6f634f413b3b296999/;;5bb5cf6f634f413b3b296999;datagouv;d_1_5;DataGouv;DataGouv;Urbanisme;;46;Lot;OCC;76;45518;p_25_50;44.6516625;4.3768457;
odf_247600539;247600539;CC CAUX ESTUAIRE;CC;Rue Sylvestre Duménil 76430 Saint-Romain-de-Colbosc;https://data.estuairedelaseine.fr;23;;1;;ptf;d_11_25;Spécifique;Data Estuaire de la Seine;Administratif-Citoyenneté-Environnement-Transport-Equipements-Education;;76;Seine-Maritime;NOR;28;18315;p_10_25;49.529616;0.356939;
odf_200072049;200072049;CC CHARENTE LIMOUSINE;CC;8 Rue Fontaine des Jardins 16500 Confolens;;;https://www.data.gouv.fr/fr/organizations/communaute-de-communes-de-charente-limousine-1/;1;;datagouv;d_1_5;DataGouv;DataGouv;Equipements;;16;Charente;NAQ;75;35378;p_25_50;46.012696;0.671937;
odf_200033116;200033116;CC CLUSES ARVE ET MONTAGNE;CC;3 Rue du Pré Benevix 74300 Cluses;;;https://www.data.gouv.fr/fr/organizations/5f5e6cf238617ce5be60d259/;47;5f5e6cf238617ce5be60d259;datagouv;d_1_5;DataGouv;DataGouv;Transport;;74;Haute-Savoie;ARA;84;44810;p_25_50;46.057295;6.58159;
odf_241400415;241400415;CC COEUR COTE FLEURIE;CC;12 Rue Robert Fossorier 14800 Deauville;http://data.coeurcotefleurie.org/dataset;47;https://www.data.gouv.fr/fr/organizations/59f846d588ee380840aa2865/;1;59f846d588ee380840aa2865;ptf+datagouv;d_51_100;CKAN;Data Cœur Côte Fleurie;Administratif-Citoyenneté-Culture-Education-Environnement-Equipements-Social-Transport-Urbanisme;;14;Calvados;NOR;28;20997;p_10_25;49.360082;0.074209;
odf_245901152;245901152;CC COEUR D'OSTREVENT;CC;Avenue du Bois 59287 Lewarde;;;https://www.data.gouv.fr/fr/organizations/5c937ac98b4c41415cbe68c8/;;5c937ac98b4c41415cbe68c8;datagouv;d_1_5;DataGouv;DataGouv;Télécom;;59;Nord;HDF;32;72312;p_50_100;50.33728;3.165252;
odf_200068815;200068815;CC COEUR DE GARONNE;CC;31 Promenade du Campet 31220 Cazères;https://data.laregion.fr/explore/?disjunctive.publisher&sort=modified&refine.publisher=Communaut%C3%A9+de+Communes+Coeur+de+Garonne;1;;;;ptf;d_1_5;OpenDataSoft;Data Occitanie;;Communauté de Communes Coeur de Garonne;31;Haute-Garonne;OCC;76;34626;p_25_50;43.206271;1.088913;
odf_200072098;200072098;CC COMBRAILLES SIOULE ET MORGE;CC;Rue Victor Mazuel 63410 Manzat;http://opendata.auvergnerhonealpes.eu/7-les-donnees.htm?facet.provider[]=Communaut%C3%A9%20de%20Communes%20Manzat%20Communaut%C3%A9&from=0;3;;;;ptf;d_1_5;Spécifique;Opendata Auvergne Rhône Alpes;Administratif;;63;Puy-de-Dôme;ARA;84;18705;p_10_25;45.961481;2.941141;
odf_200039204;200039204;CC DE LACQ-ORTHEZ;CC;Allée des Chênes 64150 Mourenx;https://opendata.cc-lacqorthez.fr/explore/?sort=modified&refine.publisher=CCLO;9;;1;;ptf;d_6_10;OpenDataSoft;Opendata Lacq-Orthez;Administratif-Citoyenneté-Equipements-Environnement-Culture-Sports;CCLO;64;Pyrénées-Atlantiques;NAQ;75;53388;p_50_100;43.36121;-0.625593;
odf_200041515;200041515;CC DU BASSIN DE PONT A MOUSSON;CC;Chemin des Clos 54700 Pont-à-Mousson;;;https://www.data.gouv.fr/fr/organizations/5c18eb5a634f41110ca05145/;;5c18eb5a634f41110ca05145;datagouv;d_1_5;DataGouv;DataGouv;Transport;;54;Meurthe-et-Moselle;GES;44;40753;p_25_50;48.923093;6.035887;
odf_240500439;240500439;CC DU BRIANCONNAIS;CC;1 Rue Aspirant Jan 05100 Briançon;https://trouver.datasud.fr/organization/communaute-de-communes-du-brianconnais;1;;1;;ptf;d_1_5;CKAN;Data Sud;Citoyenneté;;5;Hautes-Alpes;PAC;93;20987;p_10_25;44.898161;6.644335;
odf_200034957;200034957;CC DU FRONTONNAIS;CC;3 Rue du Vigé 31620 Bouloc;;;https://www.data.gouv.fr/fr/organizations/583ef3d9c751df6abcc0bb7e;1;583ef3d9c751df6abcc0bb7e;datagouv;d_1_5;DataGouv;DataGouv;Environnement-Sports;;31;Haute-Garonne;OCC;76;25885;p_25_50;43.780804;1.404801;
odf_200070530;200070530;CC DU GRAND AUTUNOIS MORVAN;CC;7 Route du Bois de Sapin 71400 Autun;;;https://www.data.gouv.fr/fr/organizations/5c46ef148b4c416a35762335/;;5c46ef148b4c416a35762335;datagouv;d_1_5;DataGouv;DataGouv;Transport;;71;Saône-et-Loire;BFC;27;36476;p_25_50;46.948471;4.283421;
odf_240300491;240300491;CC DU PAYS DE LAPALISSE;CC;Boulevard de l’Hotel de Ville 03120 Lapalisse;http://opendata.auvergnerhonealpes.eu/7-les-donnees.htm?facet.provider[]=Communaut%C3%A9%20de%20Communes%20du%20Pays%20de%20Lapalisse&from=0;2;;;;ptf;d_1_5;Spécifique;Opendata Auvergne Rhône Alpes;Administratif-Finance;;3;Allier;ARA;84;8559;p_5_10;46.250043;3.638381;
odf_200072080;200072080;CC DU PAYS DE SAINT ELOY;CC;Rue du Puits Saint Joseph 63700 Saint-Éloy-les-Mines;http://opendata.auvergnerhonealpes.eu/7-les-donnees.htm?facet.provider[]=Communaut%C3%A9%20de%20Communes%20Coeur%20de%20Combrailles&from=0;2;;;;ptf;d_1_5;Spécifique;Opendata Auvergne Rhône Alpes;Administratif;;63;Puy-de-Dôme;ARA;84;16050;p_10_25;46.162494;2.835671;
odf_241501139;241501139;CC DU PAYS DE SALERS;CC;Place du Château 15140 Salers;http://opendata.auvergnerhonealpes.eu/7-les-donnees.htm?facet.provider[]=Communaut%C3%A9%20de%20Communes%20du%20Pays%20de%20Salers&from=0;7;;7;;ptf;d_6_10;Spécifique;Opendata Auvergne Rhône Alpes;Administratif-Transport-Tourisme-Environnement-Santé;;15;Cantal;ARA;84;8616;p_5_10;45.138892;2.493518;
odf_246900740;246900740;CC DU PAYS MORNANTAIS;CC;Route de Saint-Laurent-d’Agny 69440 Mornant;;;https://www.data.gouv.fr/fr/organizations/5bbdad47634f410fb7e37ca7/;;5bbdad47634f410fb7e37ca7;datagouv;d_6_10;DataGouv;DataGouv;Administratif-Citoyenneté-Equipements;;69;Rhône;ARA;84;27926;p_25_50;45.627652;4.670294;
odf_248400236;248400236;CC DU PAYS REUNI D'ORANGE;CC;307 Avenue de l’Arc de Triomphe 84100 Orange;https://trouver.datasud.fr/organization/communaute-de-communes-du-pays-reuni-dorange;31;;1;;ptf;d_26_50;CKAN;Data Sud;Transport-Environnement-Economie-Urbanisme-Administratif-Equipements;;84;Vaucluse;PAC;93;44901;p_25_50;44.141372;4.80495;
odf_246000566;246000566;CC DU PLATEAU PICARD;CC;140 Rue Verte 60130 Le Plessier-sur-Saint-Just;;;https://www.data.gouv.fr/fr/organizations/596c880888ee387e51f2c2f6/;41;596c880888ee387e51f2c2f6;datagouv;d_1_5;DataGouv;DataGouv;Citoyenneté;;60;Oise;HDF;32;29149;p_25_50;49.50981;2.448665;
odf_243500667;243500667;CC DU VAL D'ILLE AUBIGNE;CC;La Métairie 35520 Montreuil-le-Gast;;;https://www.data.gouv.fr/fr/organizations/57daa20388ee385c305ff491;1;57daa20388ee385c305ff491;datagouv;d_26_50;DataGouv;DataGouv;Urbanisme-Transport-Environnement-Equipements;;35;Ille-et-Vilaine;BRE;53;34929;p_25_50;48.245629;-1.717737;
odf_242600252;242600252;CC DU VAL DE DROME EN BIOVALLEE;CC;96 Ronde des Alisiers 26400 Eurre;;;https://www.data.gouv.fr/fr/organizations/5dfcf3126f44410ff204c4a8/;3;5dfcf3126f44410ff204c4a8;datagouv;d_1_5;DataGouv;DataGouv;Transport;;26;Drôme;ARA;84;30844;p_25_50;44.736073;4.978483;
odf_200065894;200065894;CC FOREZ EST;CC;13 Avenue Jean Jaurés 42110 Feurs;;;https://www.data.gouv.fr/fr/organizations/5d1dba2d634f41226ef05b97/;;5d1dba2d634f41226ef05b97;datagouv;d_1_5;DataGouv;DataGouv;Administratif;;42;Loire;ARA;84;63656;p_50_100;45.744019;4.227485;
odf_246500482;246500482;CC HAUTE-BIGORRE;CC;Place des Vignaux 65200 Bagnères-de-Bigorre;https://opendata.ha-py.fr/pages/haute-bigorre/;10;;;;ptf;d_6_10;OpenDataSoft;Opendata Hautes Pyrénées;Energie-Tourisme-Télécom-Santé-Administratif;;65;Hautes-Pyrénées;OCC;76;16640;p_10_25;43.067007;0.15018;
odf_200066637;200066637;CC HAUTES TERRES COMMUNAUTE;CC;4 Rue du Faubourg Nôtre-Dame 15300 Murat;http://opendata.auvergnerhonealpes.eu/7-les-donnees.htm?facet.provider[]=Communaut%C3%A9%20de%20Communes%20du%20C%C3%A9zallier&from=0;6;;;;ptf;d_6_10;Spécifique;Opendata Auvergne Rhône Alpes;Administratif-Citoyenneté-Education-Environnement-Santé;;15;Cantal;ARA;84;11617;p_10_25;45.11087;2.869814;
odf_200069086;200069086;CC LEFF ARMOR;CC;Route de Blanchardeau 22290 Lanvollon;http://datarmor.cotesdarmor.fr/web/guest/donnees;5;;8;;ptf;d_1_5;MGDIS Open Data;Dat'Armor;Environnement-Equipements-Télécom-Culture-Citoyenneté-Transport-Economie;;22;Côtes d'Armor;BRE;53;31199;p_25_50;48.624998;-2.994998;
odf_244901013;244901013;CC LOIRE LAYON AUBANCE;CC;15 Rue de la Fuye 49610 Les Garennes sur Loire;;;https://www.data.gouv.fr/fr/organizations/communaute-de-communes-loire-layon-aubance/;;;datagouv;d_6_10;DataGouv;DataGouv;Equipements;;49;Maine-et-Loire;PDL;52;56389;p_50_100;47.38946;-0.504654;
odf_244000865;244000865;CC MAREMNE ADOUR COTE-SUD (CCMACS);CC;Allée des Camélias 40230 Saint-Vincent-de-Tyrosse;https://www.pigma.org/datanouvelleaquitaine/dataset?organization=cc_de_maremne_adour_cote_sud;5;;4;;ptf;d_1_5;CKAN;Data Nouvelle Aquitaine PIGMA;Administratif-Transport-Urbanisme;;40;Landes;NAQ;75;66974;p_50_100;43.661848;-1.315769;
odf_243500550;243500550;CC MONFORT COMMUNAUTE;CC;4 Place du Tribunal 35160 Montfort-sur-Meu;;;https://www.data.gouv.fr/fr/organizations/5b18fb70c751df1da631a2da/;;5b18fb70c751df1da631a2da;datagouv;d_1_5;DataGouv;DataGouv;Santé-Social-Economie;;35;Ille-et-Vilaine;BRE;53;25337;p_25_50;48.138347;-1.956585;
odf_240300756;240300756;CC PAYS DE CHEVAGNES;CC;Route Nationale 03230 Chevagnes;http://opendata.auvergnerhonealpes.eu/7-les-donnees.htm?facet.provider[]=Communauté%20de%20Communes%20du%20Pays%20de%20Chevagnes%20en%20Sologne&from=0&q=PAYS%20DE%20CHEVAGNES;8;;10;;ptf;d_6_10;ArcGIS;Opendata Caux Vallée de Seine;Tourisme-Administratif-Citoyenneté-Education;;3;Allier;ARA;84;5287;p_5_10;46.610074;3.55011;
odf_240400440;240400440;CC PAYS DE FORCALQUIER;CC;Rue Grande 04300 Forcalquier;;;https://www.data.gouv.fr/fr/organizations/communaute-de-communes-du-pays-de-forcalquier-montagne-de-lure/;;;datagouv;d_6_10;DataGouv;DataGouv;Equipements;;4;Alpes-de-Haute-Provence;PAC;93;9442;p_5_10;43.958548;5.78057;
odf_248400319;248400319;CC PAYS DES SORGUES MONTS DE VAUCLUSE;CC;350 Avenue de la Petite Marine 84800 L'Isle-sur-la-Sorgue;https://trouver.datasud.fr/dataset?organization=communaute-de-communes-pays-des-sorgues-monts-de-vaucluse&_organization_limit=0;6;;;;ptf;d_6_10;CKAN;Data Sud;Tourisme-Economie-Equipements-Environnement;;84;Vaucluse;PAC;93;33238;p_25_50;43.922281;5.02476;
odf_200071199;200071199;CC PLAINE LIMAGNE;CC;158 Grande Rue 63260 Aigueperse;http://opendata.auvergnerhonealpes.eu/7-les-donnees.htm?facet.provider[]=Communaut%C3%A9%20de%20Communes%20Limagne%20Bords%20Allier&from=0;1;;;;ptf;d_1_5;Spécifique;Opendata Auvergne Rhône Alpes;Administratif;;63;Puy-de-Dôme;ARA;84;21019;p_10_25;46.022741;3.202648;
odf_200070787;200070787;CC PLATEAU DE LANNEMEZAN;CC;1 Place de la République 65300 Lannemezan;https://opendata.ha-py.fr/pages/plateau-de-lannemezan/;1;;;;ptf;d_1_5;OpenDataSoft;Opendata Hautes Pyrénées;Administratif;;65;Hautes-Pyrénées;OCC;76;17942;p_10_25;43.125895;0.384783;
odf_242900744;242900744;CC POHER COMMUNAUTE;CC;Rue de la Tour d’Auvergne 29270 Carhaix-Plouguer;http://datarmor.cotesdarmor.fr/web/guest/donnees;1;;2;;ptf;d_1_5;MGDIS Open Data;Dat'Armor;Administratif-Citoyenneté-Environnement-Culture-Education-Equipements-Social-Transport-Economie;;29;Finistère;BRE;53;15597;p_10_25;48.275293;-3.574878;
odf_200068377;200068377;CC PORTE DES VOSGES MERIDIONALES;CC;4 Rue des Grands Moulins 88200 Saint-Étienne-lès-Remiremont;;;https://www.data.gouv.fr/fr/organizations/5d78beaf8b4c413699601db9/;1;5d78beaf8b4c413699601db9;datagouv;d_1_5;DataGouv;DataGouv;Administratif;;88;Vosges;GES;44;29826;p_25_50;48.021284;6.602376;
odf_200040491;200040491;CC PORTE DROME ARDECHE;CC;2 Rue Françoise Barre Sinoussi 26240 Saint-Vallier;;;https://www.data.gouv.fr/fr/organizations/communaute-de-communes-porte-de-dromardeche-1/;1;;datagouv;d_1_5;DataGouv;DataGouv;Equipements;;26;Drôme;ARA;84;47239;p_25_50;45.165582;4.821778;
odf_200066884;200066884;CC QUERCY VERT AVEYRON;CC;370 Avenue du 8 Mai 1945 82800 Nègrepelisse;;;https://www.data.gouv.fr/fr/organizations/5d838f9b6f444174735e1e0a/;1;5d838f9b6f444174735e1e0a;datagouv;d_1_5;DataGouv;DataGouv;Citoyenneté;;82;Tarn-et-Garonne;OCC;76;21794;p_10_25;44.074865;1.516101;
odf_200068146;200068146;CC SARREBOURG MOSELLE SUD;CC;3 Terrasse Normandie 57400 Sarrebourg;;;https://www.data.gouv.fr/fr/organizations/5bd9653a634f417672a9dd46/;;5bd9653a634f417672a9dd46;datagouv;d_1_5;DataGouv;DataGouv;Télécom;;57;Moselle;GES;44;46194;p_25_50;48.72223;7.043154;
odf_243100773;243100773;CC VAL AIGO;CC;2 Avenue Saint-Exupéry 31340 Villemur-sur-Tarn;https://data.laregion.fr/explore/?disjunctive.publisher&sort=modified&refine.publisher=Communaut%C3%A9+de+Communes+de+Val+A%C3%AFgo;1;;1;;ptf;d_1_5;OpenDataSoft;Data Occitanie;Citoyenneté;Communauté de Communes de Val Aïgo;31;Haute-Garonne;OCC;76;17230;p_10_25;43.86082;1.500555;
odf_249100546;249100546;CC VAL D'ESSONNE;CC;Rue Blanchard 91610 Ballancourt-sur-Essonne;;;https://www.data.gouv.fr/fr/organizations/communaute-de-communes-du-val-dessonne/;;;datagouv;d_1_5;DataGouv;DataGouv;Transport;;91;Essonne;IDF;11;60076;p_50_100;48.528094;2.379738;
odf_200041465;200041465;CC VAL'EYRIEUX;CC;21 Avenue de Saunier 07160 Le Cheylard;https://opendata.ardeche.fr/search/og_group_ref/67/type/dataset?sort_by=changed;1;;4;;ptf;d_1_5;CKAN;Opendata Ardèche;Sports;;7;Ardèche;ARA;84;12909;p_10_25;44.91003;4.425554;
odf_241300375;241300375;CC VALLEE DES BAUX ALPILLES;CC;23 Avenue des Joncades Basses 13210 Saint-Rémy-de-Provence;;;https://www.data.gouv.fr/fr/organizations/5bfbf1548b4c412a0cdc6c70/;1;5bfbf1548b4c412a0cdc6c70;datagouv;d_1_5;DataGouv;DataGouv;Administratif-Citoyenneté-Urbanisme;;13;Bouches-du-Rhône;PAC;93;27744;p_25_50;43.794258;4.777899;
odf_200034718;200034718;CC VITRY CHAMPAGNE ET DER;CC;Place de l’Hôtel de Ville 51300 Vitry-le-François;;;https://www.data.gouv.fr/fr/organizations/5a32371888ee387affdaa88d/;;5a32371888ee387affdaa88d;datagouv;d_1_5;DataGouv;DataGouv;Urbanisme;;51;Marne;GES;44;25510;p_25_50;48.725061;4.588742;
odf_243100658;243100658;CC VOLVESTRE;CC;34 Avenue de Toulouse 31390 Carbonne;https://data.laregion.fr/explore/?disjunctive.publisher&sort=modified&refine.publisher=Communaut%C3%A9+de+Communes+du+Volvestre;1;;;;ptf;d_1_5;OpenDataSoft;Data Occitanie;Citoyenneté;Communauté de Communes du Volvestre;31;Haute-Garonne;OCC;76;29757;p_25_50;43.299757;1.224997;
odf_263300626;263300626;CCAS BORDEAUX;AGCT;4 Rue Claude Bonnier 33000 Bordeaux;https://opendata.bordeaux-metropole.fr/explore/?disjunctive.publisher&disjunctive.frequence&disjunctive.territoire&sort=title&refine.publisher=CCAS+de+la+ville+de+Bordeaux;3;;133;;ptf+datagouv;d_1_5;OpenDataSoft;Opendata Bordeaux Métropole;Administratif-Citoyenneté-Equipements;33063-04030203-013;33;Gironde;NAQ;75;;p_na;44.838204;-0.582317;
odf_234500023;234500023;CENTRE VAL DE LOIRE;REG;9 Rue le Moyne de Bienville 45100 Orléans;https://data.centrevaldeloire.fr/explore/?sort=explore.popularity_score&refine.publisher=R%C3%A9gion+Centre-Val+de+Loire;37;https://www.data.gouv.fr/fr/organizations/region-centre-val-de-loire/;;561a7f00c751df4e6dcdbb48;ptf;d_101_250;OpenDataSoft;Data Centre Val de Loire;Citoyenneté-Transport-Tourisme-Education-Culture-Administratif;Région Centre-Val de Loire + Portail SIG de la Région Centre-Val de Loire*;45;Loiret;CVL;24;2567000;p_1000_5000.001;47.883245;1.909767;
odf_217700673;217700673;CESSON;COM;8 Route de Saint-Leu 77240 Cesson;https://data.ville-cesson.fr/explore/?refine.publisher=Commune+de+Cesson;1;;;;ptf;d_1_5;OpenDataSoft;Data Grand Paris Sud;Administratif;Commune de Cesson;77;Seine-et-Marne;IDF;11;10033;p_10_25;48.562467;2.602677;
odf_213500515;213500515;CESSON SEVIGNE;COM;1 Esplanade de l’Hôtel de Ville 35510 Cesson-Sévigné;https://data.rennesmetropole.fr/explore/?refine.publisher=Ville+de+Cesson-S%C3%A9vign%C3%A9;11;;1;;ptf;d_11_25;OpenDataSoft;Data Rennes Métropole;Citoyenneté-Education-Equipements-Social-Urbanisme;Ville de Cesson-Sévigné;35;Ille-et-Vilaine;BRE;53;18095;p_10_25;48.119445;-1.603015;
odf_215101015;215101015;CHALONS EN CHAMPAGNE;COM;Place du Maréchal Foch 51000 Châlons-en-Champagne;;;https://www.data.gouv.fr/fr/organizations/5badf0508b4c412b0839e0f4/;;5badf0508b4c412b0839e0f4;datagouv;d_1_5;DataGouv;DataGouv;Administratif;;51;Marne;GES;44;45268;p_25_50;48.956649;4.362286;
odf_217300656;217300656;CHAMBERY;COM;Place de l’Hôtel de Ville 73000 Chambéry;https://donnees.grandchambery.fr/explore/?refine.publisher=Ville+de+Chamb%C3%A9ry;13;;2;;ptf;d_11_25;OpenDataSoft;Data Grand Chambéry;Enfance-Economie-Equipements-Transport-Administratif-Citoyenneté-Social;Ville de Chambéry;73;Savoie;ARA;84;59697;p_50_100;45.566263;5.920498;
odf_200075810;200075810;CHAMBERY GRAND LAC ECONOMIE;AGCT;16 Avenue Lac du Bourget 73370 Le Bourget-du-Lac;;;https://www.data.gouv.fr/fr/organizations/5bcf2a798b4c412f2198fab2/;;5bcf2a798b4c412f2198fab2;datagouv;d_1_5;DataGouv;DataGouv;Transport;;73;Savoie;ARA;84;;p_na;45.644052;5.86737;
odf_216900407;216900407;CHAMPAGNE AU MONT D'OR;COM;10 Rue de la Mairie 69410 Champagne-au-Mont-d'Or;https://data.grandlyon.com/recherche?responsibleParty.organisationName=Ville%20de%20Champagne-au-Mont-d%27Or;6;;9;;ptf;d_6_10;GeoNetwork;Data Grand Lyon;Equipements-Transport-Environnement-Citoyenneté;;69;Rhône;ARA;84;5526;p_5_10;45.794817;4.790897;
odf_217700798;217700798;CHAMPAGNE SUR SEINE;COM;149 Rue Grande 77430 Champagne-sur-Seine;;;https://www.data.gouv.fr/fr/organizations/5846e4ae88ee3811d6c65bb3/;1;5846e4ae88ee3811d6c65bb3;datagouv;d_6_10;DataGouv;DataGouv;Administratif-Citoyenneté;;77;Seine-et-Marne;IDF;11;6179;p_5_10;48.394755;2.804427;
odf_210500310;210500310;CHAMPCELLA;COM;Rue de la Cime de Ville 05310 Champcella;;;https://www.data.gouv.fr/fr/organizations/champcella/;1;;datagouv;d_1_5;DataGouv;DataGouv;Equipements;;5;Hautes-Alpes;PAC;93;186;na;44.722795;6.570652;
odf_210500328;210500328;CHAMPOLEON;COM;Route des Borels 05260 Champoléon;;;https://www.data.gouv.fr/fr/organizations/champoleon/;;;datagouv;d_1_5;DataGouv;DataGouv;Equipements;;5;Hautes-Alpes;PAC;93;136;na;44.719811;6.260128;
odf_221600018;221600018;CHARENTE;DEP;31 Boulevard Emile Roux 16000 Angoulême;https://data16.lacharente.fr/donnees/recherche/;57;;1;;ptf;d_51_100;TYPO3 In Cite;Data Charente 16;Administratif-Citoyenneté-Transport-Culture-Education-Social;;16;Charente;NAQ;75;350240;p_250_500;45.645692;0.157959;
odf_221700016;221700016;CHARENTE MARITIME;DEP;85 Boulevard de la Republique 17000 La Rochelle;;;https://www.data.gouv.fr/fr/organizations/59b6449a88ee38073588ac9d;;59b6449a88ee38073588ac9d;datagouv;d_1_5;DataGouv;DataGouv;Citoyenneté;;17;Charente-Maritime;NAQ;75;646016;p_500_1000;46.138254;-1.151307;
odf_830836698;830836698;CHARENTE TOURISME;OACT;21 Rue d’Iena 16000 Angoulême;https://data16.lacharente.fr/donnees/recherche/;16;;2;;ptf;d_11_25;TYPO3 In Cite;Data Charente 16;Tourisme;;16;Charente;NAQ;75;;p_na;45.646599;0.1561;
odf_807667316;807667316;CHARTRES METROPOLE TRANSPORTS;DSPT;Place des Halles 28000 Chartres;;;https://www.data.gouv.fr/fr/organizations/5c35c8518b4c416fe6cb42c9/;;5c35c8518b4c416fe6cb42c9;datagouv;d_1_5;DataGouv;DataGouv;Transport;;28;Eure-et-Loir;CVL;24;;p_na;48.443867;1.487956;
odf_216902718;216902718;CHASSIEU;COM;60 Rue de la République 69680 Chassieu;https://data.grandlyon.com/recherche?responsibleParty.organisationName=Ville%20de%20Chassieu;10;;1;;ptf;d_6_10;GeoNetwork;Data Grand Lyon;Equipements;;69;Rhône;ARA;84;10323;p_10_25;45.743581;4.972311;
odf_210500385;210500385;CHATEAU-VILLE-VIEILLE;COM;Route de la Rua 05350 Château-Ville-Vieille;;;https://www.data.gouv.fr/fr/organizations/chateau-ville-vieille/;1;;datagouv;d_1_5;DataGouv;DataGouv;Equipements;;5;Hautes-Alpes;PAC;93;332;na;44.75999;6.820191;
odf_200064483;200064483;CHATEAUGIRON;COM;Le Coteau 35410 Châteaugiron;;;https://www.data.gouv.fr/fr/organizations/5dc1b1c08b4c41677012618b/;1;5dc1b1c08b4c41677012618b;datagouv;d_1_5;DataGouv;DataGouv;Citoyenneté;;35;Ille-et-Vilaine;BRE;53;9966;p_5_10;48.053572;-1.461401;
odf_212900278;212900278;CHATEAUNEUF-DU-FAOU;COM;8 Rue de la Mairie 29520 Châteauneuf-du-Faou;;;https://www.data.gouv.fr/fr/organizations/communaute-de-communes-de-haute-cornouaille/;;;datagouv;d_1_5;DataGouv;DataGouv;Equipements;;29;Finistère;BRE;53;3665;p_1_5;48.18622;-3.812851;
odf_213600448;213600448;CHATEAUROUX;COM;Place de la Republique 36000 Châteauroux;https://data.chateauroux-metropole.fr/explore/?sort=title&refine.publisher=VILLE+DE+CHATEAUROUX;10;;1;;ptf;d_6_10;OpenDataSoft;Data Châteauroux Métropole;Administratif-Urbanisme-Environnement-Citoyenneté;VILLE DE CHATEAUROUX;36;Indre;CVL;24;43732;p_25_50;46.811543;1.691936;
odf_217801463;217801463;CHATOU;COM;11 Place du Général de Gaulle 78400 Chatou;;;https://www.data.gouv.fr/fr/organizations/5c9e2bfb634f41255724d4ca/;11;5c9e2bfb634f41255724d4ca;datagouv;d_1_5;DataGouv;DataGouv;Citoyenneté;;78;Yvelines;IDF;11;31058;p_25_50;48.889732;2.157006;
odf_219200227;219200227;CHAVILLE;COM;1456 Avenue Roger Salengro 92370 Chaville;https://chaville-seineouest.opendatasoft.com/explore/?sort=title;0;https://www.data.gouv.fr/fr/organizations/5437e8c288ee387cb68f5e87;;5437e8c288ee387cb68f5e87;ptf+datagouv;d_11_25;OpenDataSoft;Data Grand Paris Seine Ouest;Citoyenneté-Culture-Education-Equipements;;92;Hauts-de-Seine;IDF;11;20520;p_10_25;48.809448;2.188689;
odf_214200594;214200594;CHAZELLES-SUR-LYON;COM;12 Rue Armand Bazin 42140 Chazelles-sur-Lyon;https://www.data.gouv.fr/fr/organizations/ville-de-chazelles-sur-lyon/;5;;4;;datagouv;d_1_5;DataGouv;DataGouv;Administratif-Citoyenneté-Santé-Transport;;42;Loire;ARA;84;5423;p_5_10;45.637103;4.390877;
odf_216001446;216001446;CHELLES;COM;60350 CHELLES;https://chelles-agglo-pvm.opendata.arcgis.com;4;https://www.data.gouv.fr/fr/organizations/ville-de-chelles/;;;ptf;d_6_10;ArcGIS;Data Paris Vallée de la Marne;Administratif-Equipements-Citoyenneté;;60;Oise;HDF;32;54917;p_50_100;49.353311;3.034376;
odf_214400400;214400400;CHEMERE;COM;6 Rue de Nantes 44680 Chaumes-en-Retz;https://data.loire-atlantique.fr/explore/?refine.publisher=Ville+de+Chéméré;4;;;;ptf;d_1_5;OpenDataSoft;Data Loire Atlantique;Citoyenneté-Urbanisme-Administratif;Ville de Chéméré;44;Loire-Atlantique;PDL;52;2123;p_1_5;47.122422;-1.913458;
odf_219400199;219400199;CHENNEVIERES SUR MARNE;COM;14 Avenue du Maréchal Leclerc 94430 Chennevières-sur-Marne;https://chennevieres.data4citizen.com/portail?facet.field=[%22organization%22 %22tags%22 %22theme%22 %22features%22]&rows=10&start=0&fq=organization:(chennevieres);5;;;;ptf;d_1_5;DATA4CITIZEN;Data Infocom'94;Culture-Environnement-Citoyenneté;;94;Val-de-Marne;IDF;11;18365;p_10_25;48.796304;2.532609;
odf_310679055;310679055;CITEDIA;DSPT;6 Place des Colombes 35000 Rennes;https://data.rennesmetropole.fr/explore/?refine.publisher=Cit%C3%A9dia;2;;;;ptf;d_1_5;OpenDataSoft;Data Rennes Métropole;Transport;Citédia;35;Ille-et-Vilaine;BRE;53;;p_na;48.104748;-1.682103;
odf_213400773;213400773;CLAPIERS;COM;5 Rue Pierre Mendes France 34830 Clapiers;http://data.montpellier3m.fr/datasets/commune/clapiers;36;;;;ptf;d_26_50;CKAN;Data Montpellier3M;Administratif-Economie-Environnement-Equipements-Tourisme;;34;Hérault;OCC;76;5527;p_5_10;43.655287;3.882215;
odf_216301135;216301135;CLERMONT-FERRAND;COM;10 Rue Philippe Marcombes 63000 Clermont-Ferrand;https://opendata.clermontmetropole.eu/search?source=ville%20de%20clermont-ferrand;13;;;;ptf;d_11_25;ArcGIS;Opendata Clermont Métropole;Administratif-Citoyenneté-Culture-Environnement-Equipements-Télécom;;63;Puy-de-Dôme;ARA;84;146734;p_100_250;45.779685;3.086073;
odf_246300701;246300701;CLERMONT-FERRAND METROPOLE;MET;64 Avenue de l’Union Soviétique 63000 Clermont-Ferrand;https://opendata.clermontmetropole.eu/search?source=clermont%20auvergne%20métropole;14;;3;;ptf;d_11_25;ArcGIS;Opendata Clermont Métropole;Administratif-Culture-Economie-Environnement-Transport-Urbanisme;;63;Puy-de-Dôme;ARA;84;294127;p_250_500;45.7808;3.103654;
